stop_id,stop_code,stop_name,stop_desc,stop_lat,stop_lon,stop_url,location_type,parent_station
uz3.depo,,"3.depo",,56.93390,24.15852,https://saraksti.lv/#stop/uz3.depo,,
0087,,"7.parks",,56.94050,24.16645,https://saraksti.lv/#stop/0087,,
uz5.depo,,"5.depo",,56.96951,24.15409,https://saraksti.lv/#stop/uz5.depo,,
06,,"6.parks",,56.97071,24.03081,https://saraksti.lv/#stop/06,,
1473,,"Acone",,56.91503,24.29088,https://saraksti.lv/#stop/1473,,
1470,,"Acones mazdārziņi",,56.91408,24.26698,https://saraksti.lv/#stop/1470,,
1476,,"Acones mazdārziņi",,56.91415,24.26562,https://saraksti.lv/#stop/1476,,
1468,,"Getliņu iela",,56.91327,24.24495,https://saraksti.lv/#stop/1468,,
1478,,"Getliņu iela",,56.91338,24.24430,https://saraksti.lv/#stop/1478,,
1469,,"Jaudas iela",,56.91374,24.25791,https://saraksti.lv/#stop/1469,,
1477,,"Jaudas iela",,56.91384,24.25660,https://saraksti.lv/#stop/1477,,
1467,,"Rožkalni",,56.91299,24.23725,https://saraksti.lv/#stop/1467,,
1471,,"TEC-2",,56.91445,24.27597,https://saraksti.lv/#stop/1471,,
1475,,"TEC-2",,56.91445,24.27410,https://saraksti.lv/#stop/1475,,
1472,,"Uzņēmumu parks",,56.91464,24.28569,https://saraksti.lv/#stop/1472,,
1474,,"Uzņēmumu parks",,56.91482,24.28417,https://saraksti.lv/#stop/1474,,
2045,,"Āgenskalna iela",,56.94591,24.06205,https://saraksti.lv/#stop/2045,,
2046,,"Āgenskalna priedes",,56.94459,24.05949,https://saraksti.lv/#stop/2046,,
3006,,"A.Grīna bulvāris",,56.94167,24.08285,https://saraksti.lv/#stop/3006,,
3015,,"A.Grīna bulvāris",,56.94141,24.08265,https://saraksti.lv/#stop/3015,,
2033,,"Baložu iela",,56.94571,24.07205,https://saraksti.lv/#stop/2033,,
5010,,"Āgenskalna tirgus",,56.93569,24.07240,https://saraksti.lv/#stop/5010,,
5011,,"Āgenskalna tirgus",,56.93571,24.07280,https://saraksti.lv/#stop/5011,,
1112,,"E.Smiļģa iela",,56.93682,24.07786,https://saraksti.lv/#stop/1112,,
1242,,"E.Smiļģa iela",,56.93665,24.07701,https://saraksti.lv/#stop/1242,,
3005,,"E.Smiļģa iela",,56.93662,24.07592,https://saraksti.lv/#stop/3005,,
3016,,"E.Smiļģa iela",,56.93674,24.07712,https://saraksti.lv/#stop/3016,,
5091,,"Daugavgrīvas iela",,56.94507,24.08178,https://saraksti.lv/#stop/5091,,
5384,,"Valsts arhīvs",,56.94647,24.07532,https://saraksti.lv/#stop/5384,,
1094,,"Valsts arhīvs",,56.94646,24.07594,https://saraksti.lv/#stop/1094,,
5034,,"Baložu iela",,56.94490,24.07201,https://saraksti.lv/#stop/5034,,
5288,,"Dreiliņu iela",,56.94173,24.06201,https://saraksti.lv/#stop/5288,,
5289,,"Dreiliņu iela",,56.94176,24.06249,https://saraksti.lv/#stop/5289,,
1534,,"Melnsila iela",,56.94358,24.06877,https://saraksti.lv/#stop/1534,,
1548,,"Melnsila iela",,56.94357,24.06903,https://saraksti.lv/#stop/1548,,
1039,,"Valsts arhīvs",,56.94575,24.07543,https://saraksti.lv/#stop/1039,,
2037,,"Kapseļu iela",,56.94305,24.07130,https://saraksti.lv/#stop/2037,,
2034,,"Melnsila iela",,56.94426,24.06647,https://saraksti.lv/#stop/2034,,
1258,,"Nacionālā bibliotēka",,56.94119,24.09879,https://saraksti.lv/#stop/1258,,
1259,,"Nacionālā bibliotēka",,56.94159,24.09810,https://saraksti.lv/#stop/1259,,
1374,,"Mārupes iela",,56.93183,24.07121,https://saraksti.lv/#stop/1374,,
1375,,"Mārupes iela",,56.93187,24.07105,https://saraksti.lv/#stop/1375,,
1376,,"Paula Stradiņa slimnīca",,56.92968,24.06534,https://saraksti.lv/#stop/1376,,
1377,,"Paula Stradiņa slimnīca",,56.92952,24.06474,https://saraksti.lv/#stop/1377,,
3020,,"Kalnciema iela",,56.94049,24.05752,https://saraksti.lv/#stop/3020,,
5350,,"Saules aleja",,56.93023,24.07438,https://saraksti.lv/#stop/5350,,
5351,,"Saules aleja",,56.92960,24.07491,https://saraksti.lv/#stop/5351,,
1370,,"Tukuma iela",,56.93293,24.07164,https://saraksti.lv/#stop/1370,,
1371,,"Tukuma iela",,56.93322,24.07136,https://saraksti.lv/#stop/1371,,
3004,,"Āgenskalna tirgus",,56.93558,24.07082,https://saraksti.lv/#stop/3004,,
3017,,"Āgenskalna tirgus",,56.93564,24.07014,https://saraksti.lv/#stop/3017,,
1372,,"Kokles iela",,56.93362,24.07735,https://saraksti.lv/#stop/1372,,
1373,,"Kokles iela",,56.93363,24.07756,https://saraksti.lv/#stop/1373,,
3002,,"Ormaņu iela",,56.93718,24.05967,https://saraksti.lv/#stop/3002,,
3019,,"Ormaņu iela",,56.93739,24.05919,https://saraksti.lv/#stop/3019,,
3003,,"Pārslas iela",,56.93668,24.06296,https://saraksti.lv/#stop/3003,,
3018,,"Pārslas iela",,56.93674,24.06268,https://saraksti.lv/#stop/3018,,
1116,,"Āgenskalna iela",,56.94670,24.06238,https://saraksti.lv/#stop/1116,,
1238,,"Melnsila iela",,56.94464,24.06539,https://saraksti.lv/#stop/1238,,
1115,,"Viļa Plūdoņa iela",,56.94052,24.07028,https://saraksti.lv/#stop/1115,,
7974,,"Viļa Plūdoņa iela",,56.94074,24.06982,https://saraksti.lv/#stop/7974,,
1114,,"Āgenskalna tirgus",,56.93585,24.07098,https://saraksti.lv/#stop/1114,,
1240,,"Āgenskalna tirgus",,56.93584,24.07089,https://saraksti.lv/#stop/1240,,
1239,,"Nometņu iela",,56.93810,24.07216,https://saraksti.lv/#stop/1239,,
5021,,"Arkādijas parks",,56.93145,24.08212,https://saraksti.lv/#stop/5021,,
3199,,"Arkādijas parks",,56.93280,24.08341,https://saraksti.lv/#stop/3199,,
1364,,"Torņakalna iela",,56.92816,24.08062,https://saraksti.lv/#stop/1364,,
2036,,"Paula Stradiņa slimnīca",,56.93203,24.06957,https://saraksti.lv/#stop/2036,,
1244,,"Kalnciema iela",,56.94567,24.08363,https://saraksti.lv/#stop/1244,,
1104,,"Uzvaras parks",,56.94031,24.09141,https://saraksti.lv/#stop/1104,,
1105,,"A.Grīna bulvāris",,56.94209,24.08187,https://saraksti.lv/#stop/1105,,
3042,,"A.Grīna bulvāris",,56.94202,24.08228,https://saraksti.lv/#stop/3042,,
3043,,"A.Grīna bulvāris",,56.94196,24.08258,https://saraksti.lv/#stop/3043,,
3039,,"Mārtiņa iela",,56.94851,24.07216,https://saraksti.lv/#stop/3039,,
3046,,"Mārtiņa iela",,56.94812,24.07248,https://saraksti.lv/#stop/3046,,
1106,,"Nometņu iela",,56.94301,24.07816,https://saraksti.lv/#stop/1106,,
3041,,"Nometņu iela",,56.94341,24.07707,https://saraksti.lv/#stop/3041,,
3044,,"Nometņu iela",,56.94298,24.07812,https://saraksti.lv/#stop/3044,,
3007,,"Uzvaras parks",,56.93998,24.09079,https://saraksti.lv/#stop/3007,,
3014,,"Uzvaras parks",,56.94011,24.09027,https://saraksti.lv/#stop/3014,,
1107,,"Valsts arhīvs",,56.94525,24.07477,https://saraksti.lv/#stop/1107,,
3040,,"Valsts arhīvs",,56.94606,24.07397,https://saraksti.lv/#stop/3040,,
3045,,"Valsts arhīvs",,56.94551,24.07448,https://saraksti.lv/#stop/3045,,
5185,,"Nacionālā bibliotēka",,56.94244,24.09702,https://saraksti.lv/#stop/5185,,
5186,,"Nacionālā bibliotēka",,56.94183,24.09516,https://saraksti.lv/#stop/5186,,
3008,,"Nacionālā bibliotēka",,56.94132,24.09441,https://saraksti.lv/#stop/3008,,
3013,,"Nacionālā bibliotēka",,56.94156,24.09498,https://saraksti.lv/#stop/3013,,
1111,,"Uzvaras parks",,56.93877,24.08958,https://saraksti.lv/#stop/1111,,
1243,,"Uzvaras parks",,56.93959,24.09120,https://saraksti.lv/#stop/1243,,
3198,,"Uzvaras parks",,56.93915,24.09031,https://saraksti.lv/#stop/3198,,
2117,,"Valguma iela",,56.94057,24.09621,https://saraksti.lv/#stop/2117,,
0732,,"Kalnciema iela",,56.94506,24.08360,https://saraksti.lv/#stop/0732,,
1103,,"Uzvaras parks",,56.94226,24.08798,https://saraksti.lv/#stop/1103,,
1521,,"Amatnieki",,56.96981,24.33987,https://saraksti.lv/#stop/1521,,
1522,,"Amatnieki",,56.96852,24.33862,https://saraksti.lv/#stop/1522,,
1354,,"Graudu iela",,56.90951,24.08536,https://saraksti.lv/#stop/1354,,
1356,,"Ģimnastikas iela",,56.91580,24.08748,https://saraksti.lv/#stop/1356,,
2049,,"Irbenes iela",,56.91347,24.08685,https://saraksti.lv/#stop/2049,,
7014,,"Graudu iela",,56.91055,24.08416,https://saraksti.lv/#stop/7014,,
0148,,"Ģertrūdes iela",,56.95359,24.13146,https://saraksti.lv/#stop/0148,,
0273,,"Matīsa iela",,56.95627,24.13644,https://saraksti.lv/#stop/0273,,
5090,,"Daugavas stadions",,56.95328,24.15477,https://saraksti.lv/#stop/5090,,
0245,,"Lienes iela",,56.95353,24.14738,https://saraksti.lv/#stop/0245,,
2076,,"Avotu iela",,56.95066,24.13278,https://saraksti.lv/#stop/2076,,
2069,,"Bruņinieku iela",,56.95228,24.14022,https://saraksti.lv/#stop/2069,,
0272,,"Matīsa iela",,56.95291,24.14361,https://saraksti.lv/#stop/0272,,
2070,,"Stabu iela",,56.95149,24.13640,https://saraksti.lv/#stop/2070,,
2077,,"Stabu iela",,56.95159,24.13736,https://saraksti.lv/#stop/2077,,
1494,,"A.Čaka iela",,56.95465,24.13487,https://saraksti.lv/#stop/1494,,
2072,,"Dzirnavu iela",,56.94891,24.12561,https://saraksti.lv/#stop/2072,,
2071,,"Lāčplēša iela",,56.94978,24.13127,https://saraksti.lv/#stop/2071,,
2075,,"Visvalža iela",,56.94917,24.12791,https://saraksti.lv/#stop/2075,,
2003,,"A.Čaka iela",,56.95256,24.13128,https://saraksti.lv/#stop/2003,,
2004,,"Avotu iela",,56.95065,24.13471,https://saraksti.lv/#stop/2004,,
2007,,"Avotu iela",,56.95136,24.13364,https://saraksti.lv/#stop/2007,,
2005,,"Valmieras iela",,56.94742,24.14055,https://saraksti.lv/#stop/2005,,
2068,,"Lienes iela",,56.95377,24.14677,https://saraksti.lv/#stop/2068,,
2006,,"Ģertrūdes iela",,56.94876,24.13750,https://saraksti.lv/#stop/2006,,
0182,,"Dzirnavu iela",,56.95056,24.12530,https://saraksti.lv/#stop/0182,,
5462,,"A.Čaka iela",,56.95568,24.13640,https://saraksti.lv/#stop/5462,,
5466,,"Avotu iela",,56.95237,24.14323,https://saraksti.lv/#stop/5466,,
5461,,"Krāsotāju iela",,56.95343,24.14121,https://saraksti.lv/#stop/5461,,
5459,,"Matīsa iela",,56.94780,24.15331,https://saraksti.lv/#stop/5459,,
5465,,"Matīsa iela",,56.95524,24.13709,https://saraksti.lv/#stop/5465,,
5468,,"Pērnavas iela",,56.94789,24.15291,https://saraksti.lv/#stop/5468,,
5460,,"Valmieras iela",,56.95056,24.14733,https://saraksti.lv/#stop/5460,,
5467,,"Valmieras iela",,56.95006,24.14819,https://saraksti.lv/#stop/5467,,
2025,,"Daugavas stadions",,56.95312,24.15392,https://saraksti.lv/#stop/2025,,
0146,,"Ģertrūdes iela",,56.94703,24.13994,https://saraksti.lv/#stop/0146,,
0037,,"Avotu iela",,56.95193,24.13739,https://saraksti.lv/#stop/0037,,
0440,,"Stabu iela",,56.95213,24.13720,https://saraksti.lv/#stop/0440,,
0274,,"Matīsa iela",,56.95107,24.14932,https://saraksti.lv/#stop/0274,,
0271,,"Matīsa iela",,56.95067,24.14837,https://saraksti.lv/#stop/0271,,
0142,,"Ģertrūdes iela",,56.94727,24.14301,https://saraksti.lv/#stop/0142,,
1550,,"Rododendru audzētava",,56.95976,23.95258,https://saraksti.lv/#stop/1550,,
1666,,"Liepezers",,56.98439,24.00135,https://saraksti.lv/#stop/1666,,
1667,,"Liepezers",,56.98394,23.99998,https://saraksti.lv/#stop/1667,,
1664,,"Mežāres",,56.97464,23.96883,https://saraksti.lv/#stop/1664,,
1665,,"Mežāres",,56.97644,23.96942,https://saraksti.lv/#stop/1665,,
1708,,"Pumpas",,56.97838,23.97450,https://saraksti.lv/#stop/1708,,
1709,,"Pumpas",,56.97872,23.97596,https://saraksti.lv/#stop/1709,,
1662,,"Spilve",,56.96453,23.96273,https://saraksti.lv/#stop/1662,,
1663,,"Spilve",,56.96470,23.96323,https://saraksti.lv/#stop/1663,,
1549,,"Babītes stacija",,56.95822,23.95345,https://saraksti.lv/#stop/1549,,
1549a,,"Babītes stacija",,56.95795,23.95176,https://saraksti.lv/#stop/1549a,,
1310,,"Baloži",,56.87617,24.12217,https://saraksti.lv/#stop/1310,,
1314,,"Baloži",,56.87645,24.12302,https://saraksti.lv/#stop/1314,,
1312,,"Baložu galapunkts",,56.87066,24.11062,https://saraksti.lv/#stop/1312,,
1311,,"Baložu skola",,56.87486,24.11855,https://saraksti.lv/#stop/1311,,
1313,,"Baložu skola",,56.87480,24.11870,https://saraksti.lv/#stop/1313,,
6454,,"Beberbeķu iela",,56.94969,23.96132,https://saraksti.lv/#stop/6454,,
8085,,"Beberbeķu iela",,56.94928,23.96092,https://saraksti.lv/#stop/8085,,
0342,,"Berģuciems",,56.97801,24.30995,https://saraksti.lv/#stop/0342,,
0174,,"Jaunības iela",,56.98564,24.29746,https://saraksti.lv/#stop/0174,,
0175,,"Jaunības iela",,56.98560,24.29734,https://saraksti.lv/#stop/0175,,
0241,,"Lejasciema iela",,56.98333,24.30016,https://saraksti.lv/#stop/0241,,
0240,,"Lejasciema iela",,56.98313,24.30057,https://saraksti.lv/#stop/0240,,
0129,,"Mākoņu iela",,56.97946,24.30557,https://saraksti.lv/#stop/0129,,
0258,,"Mākoņu iela",,56.97986,24.30494,https://saraksti.lv/#stop/0258,,
0390,,"Rožu iela",,56.99773,24.27706,https://saraksti.lv/#stop/0390,,
0389,,"Rožu iela",,56.99772,24.27688,https://saraksti.lv/#stop/0389,,
0464,,"Tadenavas iela",,56.98725,24.29476,https://saraksti.lv/#stop/0464,,
0463,,"Tadenavas iela",,56.98764,24.29430,https://saraksti.lv/#stop/0463,,
0332,,"Upesciema iela",,56.99008,24.29103,https://saraksti.lv/#stop/0332,,
0333,,"Upesciema iela",,56.99033,24.29105,https://saraksti.lv/#stop/0333,,
0021,,"Vējdzirnavu iela",,56.99486,24.28172,https://saraksti.lv/#stop/0021,,
0022,,"Vējdzirnavu iela",,56.99526,24.28109,https://saraksti.lv/#stop/0022,,
0227,,"Berģi",,56.99897,24.27358,https://saraksti.lv/#stop/0227,,
0228,,"Berģi",,56.99927,24.27352,https://saraksti.lv/#stop/0228,,
0057,,"Brīvdabas muzejs",,56.99625,24.26476,https://saraksti.lv/#stop/0057,,
0056,,"Brīvdabas muzejs",,56.99662,24.26464,https://saraksti.lv/#stop/0056,,
0353,,"Madaru iela",,56.98750,24.30409,https://saraksti.lv/#stop/0353,,
0354,,"Madaru iela",,56.98735,24.30429,https://saraksti.lv/#stop/0354,,
0462,,"Tadenavas iela",,56.98863,24.29896,https://saraksti.lv/#stop/0462,,
0461,,"Tadenavas iela",,56.98862,24.29844,https://saraksti.lv/#stop/0461,,
0334,,"Upesciema iela",,56.99053,24.29151,https://saraksti.lv/#stop/0334,,
0335,,"Upesciema iela",,56.99057,24.29169,https://saraksti.lv/#stop/0335,,
0342a,,"Berģuciems",,56.97791,24.31008,https://saraksti.lv/#stop/0342a,,
1403,,"Asītes iela",,56.92182,24.07433,https://saraksti.lv/#stop/1403,,
1380,,"Dauguļu iela",,56.92144,24.04650,https://saraksti.lv/#stop/1380,,
1381,,"Dauguļu iela",,56.92144,24.04537,https://saraksti.lv/#stop/1381,,
0012,,"Brūkleņu iela",,56.91912,24.05066,https://saraksti.lv/#stop/0012,,
5065,,"Brūkleņu iela",,56.91931,24.05191,https://saraksti.lv/#stop/5065,,
5221,,"Mežotnes iela",,56.92121,24.06502,https://saraksti.lv/#stop/5221,,
5220,,"Mežotnes iela",,56.92100,24.06498,https://saraksti.lv/#stop/5220,,
5409,,"Upesgrīvas iela",,56.91871,24.04289,https://saraksti.lv/#stop/5409,,
5410,,"Upesgrīvas iela",,56.91856,24.04239,https://saraksti.lv/#stop/5410,,
0010,,"Brūkleņu iela",,56.92261,24.05276,https://saraksti.lv/#stop/0010,,
0011,,"Brūkleņu iela",,56.92220,24.05221,https://saraksti.lv/#stop/0011,,
8023,,"Mežotnes iela",,56.92407,24.05535,https://saraksti.lv/#stop/8023,,
8063,,"Mežotnes iela",,56.92479,24.05641,https://saraksti.lv/#stop/8063,,
1378,,"Raudas iela",,56.92647,24.06131,https://saraksti.lv/#stop/1378,,
1379,,"Raudas iela",,56.92658,24.06158,https://saraksti.lv/#stop/1379,,
1404,,"Robežu iela",,56.92287,24.07576,https://saraksti.lv/#stop/1404,,
1383,,"Brūkleņu iela",,56.91347,24.05057,https://saraksti.lv/#stop/1383,,
1384,,"Kurmenes iela",,56.91315,24.05482,https://saraksti.lv/#stop/1384,,
1386,,"Kursīšu iela",,56.91266,24.05894,https://saraksti.lv/#stop/1386,,
5060,,"Bramberģes iela",,56.91489,24.06995,https://saraksti.lv/#stop/5060,,
5061,,"Bramberģes iela",,56.91409,24.06847,https://saraksti.lv/#stop/5061,,
5134,,"Ģimnastikas iela",,56.91939,24.07553,https://saraksti.lv/#stop/5134,,
1401,,"Ģimnastikas iela",,56.91873,24.07475,https://saraksti.lv/#stop/1401,,
5359,,"Sējas iela",,56.91238,24.06609,https://saraksti.lv/#stop/5359,,
5360,,"Sējas iela",,56.91205,24.06540,https://saraksti.lv/#stop/5360,,
1399,,"Vecmoku iela",,56.91706,24.07314,https://saraksti.lv/#stop/1399,,
1400,,"Vecmoku iela",,56.91709,24.07340,https://saraksti.lv/#stop/1400,,
1382,,"Upesgrīvas iela",,56.91975,24.04148,https://saraksti.lv/#stop/1382,,
8082,,"Upesgrīvas iela",,56.91948,24.04120,https://saraksti.lv/#stop/8082,,
5024a,,"Ārlavas iela",,56.92124,24.07638,https://saraksti.lv/#stop/5024a,,
1559,,"Dzelzceļa stacija ""Turība""",,56.91229,24.07551,https://saraksti.lv/#stop/1559,,
1560,,"Dzelzceļa stacija ""Turība""",,56.91209,24.07645,https://saraksti.lv/#stop/1560,,
5133a,,"Ģimnastikas iela",,56.92052,24.07134,https://saraksti.lv/#stop/5133a,,
5023a,,"Ārlavas iela",,56.92246,24.07762,https://saraksti.lv/#stop/5023a,,
9118,,"Biķeri",,56.95270,24.25583,https://saraksti.lv/#stop/9118,,
5136,,"Bišumuiža",,56.91498,24.14039,https://saraksti.lv/#stop/5136,,
5137,,"Bišumuiža",,56.91408,24.14151,https://saraksti.lv/#stop/5137,,
3185,,"Bišumuiža",,56.91458,24.14072,https://saraksti.lv/#stop/3185,,
1280,,"Doles iela",,56.91584,24.13235,https://saraksti.lv/#stop/1280,,
1281,,"Doles iela",,56.91595,24.13443,https://saraksti.lv/#stop/1281,,
3186,,"Doles iela",,56.91589,24.13438,https://saraksti.lv/#stop/3186,,
3210,,"Doles iela",,56.91580,24.13235,https://saraksti.lv/#stop/3210,,
3209,,"Mazā Bauskas iela",,56.91570,24.12389,https://saraksti.lv/#stop/3209,,
5295,,"Piena kombināts",,56.91142,24.14508,https://saraksti.lv/#stop/5295,,
1279,,"Ziepniekkalna iela",,56.91510,24.12282,https://saraksti.lv/#stop/1279,,
1326,,"Kalētu iela",,56.90734,24.12826,https://saraksti.lv/#stop/1326,,
1327,,"Šautuves iela",,56.91196,24.12458,https://saraksti.lv/#stop/1327,,
1816,,"Lejupes iela",,56.91095,24.14757,https://saraksti.lv/#stop/1816,,
1817,,"Lejupes iela",,56.91115,24.14908,https://saraksti.lv/#stop/1817,,
1148,,"Guberņciems",,57.01817,24.05725,https://saraksti.lv/#stop/1148,,
1149,,"Guberņciems",,57.01836,24.05605,https://saraksti.lv/#stop/1149,,
1150,,"Silikātu iela",,57.02871,24.04649,https://saraksti.lv/#stop/1150,,
1151,,"Silikātu iela",,57.02801,24.04682,https://saraksti.lv/#stop/1151,,
8050,,"Bolderāja",,57.03339,24.04856,https://saraksti.lv/#stop/8050,,
8012,,"Kaņepju iela",,57.03402,24.04786,https://saraksti.lv/#stop/8012,,
1153,,"Bolderājas Jaunā pamatskola",,57.03568,24.04439,https://saraksti.lv/#stop/1153,,
8013,,"Bolderājas Jaunā pamatskola",,57.03531,24.04559,https://saraksti.lv/#stop/8013,,
8040,,"Bolderājas tilts",,57.03736,24.03970,https://saraksti.lv/#stop/8040,,
1155,,"Bolderājas tilts",,57.03668,24.04068,https://saraksti.lv/#stop/1155,,
1188,,"Buļļupe",,57.02556,24.02562,https://saraksti.lv/#stop/1188,,
1189,,"Buļļupe",,57.02602,24.02651,https://saraksti.lv/#stop/1189,,
1184,,"Platā iela",,57.02822,24.04336,https://saraksti.lv/#stop/1184,,
1185,,"Platā iela",,57.02848,24.04471,https://saraksti.lv/#stop/1185,,
1187,,"Silikātu iela",,57.02790,24.03422,https://saraksti.lv/#stop/1187,,
1186,,"Silikātu iela",,57.02809,24.03392,https://saraksti.lv/#stop/1186,,
1152,,"Bolderāja",,57.03285,24.04821,https://saraksti.lv/#stop/1152,,
0080,,"Cēsu iela",,56.96584,24.14369,https://saraksti.lv/#stop/0080,,
0220,,"K.Barona iela",,56.96789,24.14961,https://saraksti.lv/#stop/0220,,
0468,,"Tallinas iela",,56.96329,24.13755,https://saraksti.lv/#stop/0468,,
2112,,"Brīvības iela",,56.96305,24.13597,https://saraksti.lv/#stop/2112,,
8005,,"Laktas iela",,56.97934,24.13657,https://saraksti.lv/#stop/8005,,
8006,,"Laktas iela",,56.97830,24.13601,https://saraksti.lv/#stop/8006,,
0020,,"Alojas iela",,56.96757,24.13079,https://saraksti.lv/#stop/0020,,
0128,,"Ēveles iela",,56.97069,24.13330,https://saraksti.lv/#stop/0128,,
0126,,"Ēveles iela",,56.96898,24.13173,https://saraksti.lv/#stop/0126,,
0153,,"Ierēdņu iela",,56.97434,24.13557,https://saraksti.lv/#stop/0153,,
0152,,"Ierēdņu iela",,56.97332,24.13517,https://saraksti.lv/#stop/0152,,
0385,,"Klijānu iela",,56.97452,24.14460,https://saraksti.lv/#stop/0385,,
0284,,"Mēness iela",,56.96864,24.13660,https://saraksti.lv/#stop/0284,,
7999,,"Brasas stacija",,56.97582,24.14434,https://saraksti.lv/#stop/7999,,
3220,,"Brasas stacija",,56.97579,24.14444,https://saraksti.lv/#stop/3220,,
3232,,"Brasas stacija",,56.97615,24.14488,https://saraksti.lv/#stop/3232,,
3223,,"Dzemdību nams",,56.96605,24.13359,https://saraksti.lv/#stop/3223,,
8000,,"Kazarmu iela/Lielie kapi",,56.97320,24.14186,https://saraksti.lv/#stop/8000,,
3221,,"Kazarmu iela/Lielie kapi",,56.97320,24.14189,https://saraksti.lv/#stop/3221,,
3231,,"Kazarmu iela/Lielie kapi",,56.97304,24.14180,https://saraksti.lv/#stop/3231,,
3222,,"Mēness iela",,56.96875,24.13556,https://saraksti.lv/#stop/3222,,
3230,,"Mēness iela",,56.96898,24.13594,https://saraksti.lv/#stop/3230,,
9102,,"Miera iela",,56.97037,24.13917,https://saraksti.lv/#stop/9102,,
9103,,"Miera iela",,56.97024,24.13915,https://saraksti.lv/#stop/9103,,
2031,,"Dzemdību nams",,56.96523,24.13381,https://saraksti.lv/#stop/2031,,
1047,,"Upes iela",,56.97590,24.13379,https://saraksti.lv/#stop/1047,,
1048,,"Upes iela",,56.97575,24.13437,https://saraksti.lv/#stop/1048,,
1514,,"Bebrenes iela",,56.95749,24.29319,https://saraksti.lv/#stop/1514,,
1527,,"Bebrenes iela",,56.95755,24.29304,https://saraksti.lv/#stop/1527,,
1513,,"Brekši",,56.95709,24.28788,https://saraksti.lv/#stop/1513,,
1528,,"Brekši",,56.95725,24.28729,https://saraksti.lv/#stop/1528,,
1515,,"Nautrēnu iela",,56.95925,24.29861,https://saraksti.lv/#stop/1515,,
1526,,"Nautrēnu iela",,56.95900,24.29753,https://saraksti.lv/#stop/1526,,
1516,,"Papīrfabrika ""Jugla""",,56.96075,24.30231,https://saraksti.lv/#stop/1516,,
1525,,"Papīrfabrika ""Jugla""",,56.96082,24.30218,https://saraksti.lv/#stop/1525,,
1612,,"Ādažu iela",,57.01317,24.25966,https://saraksti.lv/#stop/1612,,
9094,,"Ādažu iela",,57.01410,24.25956,https://saraksti.lv/#stop/9094,,
1613,,"Bukulti",,57.02085,24.25880,https://saraksti.lv/#stop/1613,,
1668,,"Lejasvīganti",,57.01060,24.26056,https://saraksti.lv/#stop/1668,,
1669,,"Lejasvīganti",,57.01040,24.26035,https://saraksti.lv/#stop/1669,,
0226,,"Kūdras bāze",,57.00451,24.25212,https://saraksti.lv/#stop/0226,,
0225,,"Kūdras bāze",,57.00453,24.25171,https://saraksti.lv/#stop/0225,,
0295,,"Milnas",,57.00920,24.24367,https://saraksti.lv/#stop/0295,,
0296,,"Milnas",,57.00925,24.24338,https://saraksti.lv/#stop/0296,,
0068,,"Pagrieziens uz Bukultiem",,57.00367,24.25923,https://saraksti.lv/#stop/0068,,
0069,,"Pagrieziens uz Bukultiem",,57.00360,24.25918,https://saraksti.lv/#stop/0069,,
1171,,"Vakarbuļļi",,57.00100,23.94337,https://saraksti.lv/#stop/1171,,
1165,,"Attīrīšanas iekārtas",,57.02888,23.99725,https://saraksti.lv/#stop/1165,,
1177,,"Attīrīšanas iekārtas",,57.02955,23.99850,https://saraksti.lv/#stop/1177,,
1168,,"Dzelmes iela",,57.01429,23.97749,https://saraksti.lv/#stop/1168,,
1174,,"Dzelmes iela",,57.01455,23.97849,https://saraksti.lv/#stop/1174,,
1166,,"Roņu iela",,57.02133,23.99277,https://saraksti.lv/#stop/1166,,
1176,,"Roņu iela",,57.02156,23.99318,https://saraksti.lv/#stop/1176,,
1169,,"Vētras iela",,57.01308,23.97513,https://saraksti.lv/#stop/1169,,
1173,,"Vētras iela",,57.01293,23.97487,https://saraksti.lv/#stop/1173,,
1167,,"Zēģeļu iela",,57.01789,23.98585,https://saraksti.lv/#stop/1167,,
1175,,"Zēģeļu iela",,57.01768,23.98562,https://saraksti.lv/#stop/1175,,
1164,,"Ziemeļupe",,57.03398,24.00362,https://saraksti.lv/#stop/1164,,
1178,,"Ziemeļupe",,57.03422,24.00575,https://saraksti.lv/#stop/1178,,
1170,,"Pludmale",,57.01663,23.96983,https://saraksti.lv/#stop/1170,,
1172,,"Pludmale",,57.01605,23.97139,https://saraksti.lv/#stop/1172,,
1251a,,"Autoosta",,56.94639,24.11635,https://saraksti.lv/#stop/1251a,,
1251b,,"Autoosta",,56.94621,24.11589,https://saraksti.lv/#stop/1251b,,
2039,,"Dzemdību nams",,56.96539,24.13254,https://saraksti.lv/#stop/2039,,
2032,,"Franču licejs",,56.96291,24.12541,https://saraksti.lv/#stop/2032,,
2038,,"Franču licejs",,56.96286,24.12589,https://saraksti.lv/#stop/2038,,
2063,,"Ģertrūdes iela",,56.95340,24.13080,https://saraksti.lv/#stop/2063,,
0270,,"Matīsa iela",,56.95644,24.13652,https://saraksti.lv/#stop/0270,,
0469,,"Tallinas iela",,56.95934,24.14196,https://saraksti.lv/#stop/0469,,
1290a,,"Brīvības piemineklis",,56.95243,24.11434,https://saraksti.lv/#stop/1290a,,
1290b,,"Brīvības piemineklis",,56.95214,24.11388,https://saraksti.lv/#stop/1290b,,
0194,,"Esplanāde",,56.95347,24.11597,https://saraksti.lv/#stop/0194,,
0194b,,"Esplanāde",,56.95384,24.11657,https://saraksti.lv/#stop/0194b,,
0194c,,"Esplanāde",,56.95322,24.11558,https://saraksti.lv/#stop/0194c,,
1490,,"Tērbatas iela",,56.95303,24.11615,https://saraksti.lv/#stop/1490,,
0145,,"Ģertrūdes iela",,56.95676,24.12194,https://saraksti.lv/#stop/0145,,
7987,,"Ģertrūdes iela",,56.95663,24.12204,https://saraksti.lv/#stop/7987,,
0269,,"Matīsa iela",,56.96029,24.13050,https://saraksti.lv/#stop/0269,,
2020,,"Matīsa iela",,56.95996,24.12951,https://saraksti.lv/#stop/2020,,
2021,,"Matīsa iela",,56.96000,24.13012,https://saraksti.lv/#stop/2021,,
0466,,"Tallinas iela",,56.96246,24.13588,https://saraksti.lv/#stop/0466,,
1496,,"Brīvības iela",,56.95861,24.12709,https://saraksti.lv/#stop/1496,,
5463,,"Rīgas 1.slimnīca",,56.96008,24.12456,https://saraksti.lv/#stop/5463,,
1495,,"Tērbatas iela",,56.95704,24.13016,https://saraksti.lv/#stop/1495,,
0467,,"Tallinas iela",,56.96273,24.13567,https://saraksti.lv/#stop/0467,,
1600,,"E.Birznieka-Upīša iela",,56.94864,24.12439,https://saraksti.lv/#stop/1600,,
3064,,"Vašingtona laukums",,56.96193,24.09836,https://saraksti.lv/#stop/3064,,
7984,,"Elizabetes iela",,56.95825,24.10808,https://saraksti.lv/#stop/7984,,
5464,,"K.Valdemāra iela",,56.95683,24.11296,https://saraksti.lv/#stop/5464,,
2008,,"A.Čaka iela",,56.95345,24.12987,https://saraksti.lv/#stop/2008,,
2002,,"K.Barona iela",,56.95515,24.12663,https://saraksti.lv/#stop/2002,,
2010,,"K.Barona iela",,56.95496,24.12714,https://saraksti.lv/#stop/2010,,
2086,,"Latvijas Universitāte",,56.95100,24.11556,https://saraksti.lv/#stop/2086,,
3242,,"Aspazijas bulvāris",,56.94811,24.11486,https://saraksti.lv/#stop/3242,,
3122,,"Bērnu pasaule",,56.95730,24.13350,https://saraksti.lv/#stop/3122,,
3130,,"Bērnu pasaule",,56.95672,24.13238,https://saraksti.lv/#stop/3130,,
3124,,"Dzirnavu iela",,56.95223,24.12320,https://saraksti.lv/#stop/3124,,
3128,,"Dzirnavu iela",,56.95234,24.12353,https://saraksti.lv/#stop/3128,,
3123,,"Ģertrūdes iela",,56.95459,24.12803,https://saraksti.lv/#stop/3123,,
3129,,"Ģertrūdes iela",,56.95441,24.12772,https://saraksti.lv/#stop/3129,,
3125,,"Merķeļa iela",,56.94995,24.11864,https://saraksti.lv/#stop/3125,,
3127,,"Merķeļa iela",,56.95037,24.11955,https://saraksti.lv/#stop/3127,,
3121,,"Tallinas iela",,56.96098,24.14075,https://saraksti.lv/#stop/3121,,
3131,,"Tallinas iela",,56.96079,24.14045,https://saraksti.lv/#stop/3131,,
0067,,"Bruņinieku iela",,56.96093,24.12170,https://saraksti.lv/#stop/0067,,
0066,,"Bruņinieku iela",,56.96178,24.12284,https://saraksti.lv/#stop/0066,,
0122,,"E.Melngaiļa iela",,56.95923,24.11856,https://saraksti.lv/#stop/0122,,
0027,,"Franču licejs",,56.96357,24.12596,https://saraksti.lv/#stop/0027,,
0233,,"Lāčplēša iela",,56.95818,24.11688,https://saraksti.lv/#stop/0233,,
0259,,"Mākslas muzejs",,56.95565,24.11133,https://saraksti.lv/#stop/0259,,
0120,,"Mākslas muzejs",,56.95611,24.11258,https://saraksti.lv/#stop/0120,,
0610,,"Nacionālais teātris",,56.95377,24.10646,https://saraksti.lv/#stop/0610,,
0643,,"Nacionālais teātris",,56.95393,24.10706,https://saraksti.lv/#stop/0643,,
0340,,"Palīdzības iela",,56.96474,24.12758,https://saraksti.lv/#stop/0340,,
0121,,"Elizabetes iela",,56.95796,24.10619,https://saraksti.lv/#stop/0121,,
2120,,"Medicīnas muzejs",,56.95725,24.10730,https://saraksti.lv/#stop/2120,,
3063,,"Ausekļa iela",,56.95742,24.10083,https://saraksti.lv/#stop/3063,,
3097,,"Ausekļa iela",,56.95771,24.10053,https://saraksti.lv/#stop/3097,,
3062,,"Nacionālais teātris",,56.95375,24.10419,https://saraksti.lv/#stop/3062,,
3098,,"Nacionālais teātris",,56.95327,24.10458,https://saraksti.lv/#stop/3098,,
0114,,"Dzirnavu iela",,56.95071,24.12542,https://saraksti.lv/#stop/0114,,
1028,,"Stacijas laukums",,56.94764,24.11885,https://saraksti.lv/#stop/1028,,
1028a,,"Stacijas laukums",,56.94807,24.11976,https://saraksti.lv/#stop/1028a,,
3226,,"Bērnu pasaule",,56.95727,24.13291,https://saraksti.lv/#stop/3226,,
3227,,"Brīvības iela",,56.95951,24.12900,https://saraksti.lv/#stop/3227,,
0059,,"Brīvības bulvāris",,56.95175,24.11617,https://saraksti.lv/#stop/0059,,
0167,,"Inženieru iela",,56.95122,24.11682,https://saraksti.lv/#stop/0167,,
1033b,,"Merķeļa iela",,56.94945,24.11884,https://saraksti.lv/#stop/1033b,,
1033a,,"Merķeļa iela",,56.94859,24.11984,https://saraksti.lv/#stop/1033a,,
2119,,"Merķeļa iela",,56.94908,24.11928,https://saraksti.lv/#stop/2119,,
3225,,"Brīvības iela",,56.96016,24.12915,https://saraksti.lv/#stop/3225,,
3229,,"Dzemdību nams",,56.96525,24.13313,https://saraksti.lv/#stop/3229,,
3224,,"Laima",,56.96356,24.13188,https://saraksti.lv/#stop/3224,,
3228,,"Laima",,56.96338,24.13173,https://saraksti.lv/#stop/3228,,
0115,,"Hanzas iela",,56.96245,24.10607,https://saraksti.lv/#stop/0115,,
0116,,"Hanzas iela",,56.96180,24.10579,https://saraksti.lv/#stop/0116,,
3126,,"Stacijas laukums",,56.94765,24.11636,https://saraksti.lv/#stop/3126,,
0060,,"Brīvības bulvāris",,56.95215,24.11314,https://saraksti.lv/#stop/0060,,
0075,,"Centrālā stacija",,56.94847,24.11772,https://saraksti.lv/#stop/0075,,
7980,,"Centrālā stacija",,56.94758,24.11834,https://saraksti.lv/#stop/7980,,
2017,,"Centrālā stacija",,56.94755,24.11816,https://saraksti.lv/#stop/2017,,
0168,,"Inženieru iela",,56.95090,24.11490,https://saraksti.lv/#stop/0168,,
0373,,"Raiņa bulvāris",,56.95393,24.10927,https://saraksti.lv/#stop/0373,,
0077,,"Centrālā stacija",,56.94813,24.12130,https://saraksti.lv/#stop/0077,,
0074,,"Elizabetes iela",,56.94810,24.12363,https://saraksti.lv/#stop/0074,,
0076,,"Stacijas laukums",,56.94779,24.12012,https://saraksti.lv/#stop/0076,,
1492,,"A.Čaka iela",,56.95458,24.13199,https://saraksti.lv/#stop/1492,,
1491,,"Stabu iela",,56.95774,24.12539,https://saraksti.lv/#stop/1491,,
0065,,"Brīvības iela",,56.96360,24.13618,https://saraksti.lv/#stop/0065,,
2040,,"K.Barona iela",,56.96118,24.14002,https://saraksti.lv/#stop/2040,,
2001,,"Blaumaņa iela",,56.95428,24.12250,https://saraksti.lv/#stop/2001,,
2011,,"Blaumaņa iela",,56.95480,24.12338,https://saraksti.lv/#stop/2011,,
2000,,"Tērbatas iela",,56.95257,24.11619,https://saraksti.lv/#stop/2000,,
2012,,"Tērbatas iela",,56.95263,24.11596,https://saraksti.lv/#stop/2012,,
3255,,"Stacijas laukums",,56.94823,24.11602,https://saraksti.lv/#stop/3255,,
0033,,"Augstrozes iela",,56.98333,24.16018,https://saraksti.lv/#stop/0033,,
0315,,"Čiekurkalna 2.šķērslīnija",,56.98264,24.16653,https://saraksti.lv/#stop/0315,,
0350,,"Čiekurkalna 5.šķērslīnija",,56.98296,24.17354,https://saraksti.lv/#stop/0350,,
0028,,"Čiekurkalna 8. šķērslīnija",,56.98322,24.18106,https://saraksti.lv/#stop/0028,,
0316,,"Čiekurkalna 2.šķērslīnija",,56.98552,24.16613,https://saraksti.lv/#stop/0316,,
0082,,"Čiekurkalna 4.šķērslīnija",,56.98577,24.17099,https://saraksti.lv/#stop/0082,,
0423,,"Čiekurkalna 6.šķērslīnija",,56.98607,24.17726,https://saraksti.lv/#stop/0423,,
0104,,"Čiekurkalna 9.šķērslīnija",,56.98635,24.18285,https://saraksti.lv/#stop/0104,,
0361,,"Aizsardzības akadēmija",,56.99379,24.17769,https://saraksti.lv/#stop/0361,,
8074,,"Aizsardzības akadēmija",,56.99323,24.18080,https://saraksti.lv/#stop/8074,,
0131,,"Krustabaznīcas iela",,56.99239,24.18576,https://saraksti.lv/#stop/0131,,
4001,,"Krustabaznīcas iela",,56.99230,24.18705,https://saraksti.lv/#stop/4001,,
3218,,"2.Meža kapi",,56.98425,24.15550,https://saraksti.lv/#stop/3218,,
3234,,"2.Meža kapi",,56.98431,24.15569,https://saraksti.lv/#stop/3234,,
0473,,"Brāļu kapi",,56.98264,24.15164,https://saraksti.lv/#stop/0473,,
0015,,"Brāļu kapi",,56.98165,24.14872,https://saraksti.lv/#stop/0015,,
3219,,"Brāļu kapi",,56.98258,24.15073,https://saraksti.lv/#stop/3219,,
3233,,"Brāļu kapi",,56.98274,24.15121,https://saraksti.lv/#stop/3233,,
9105,,"Čiekurkalna 3.šķērslīnija",,56.98730,24.16711,https://saraksti.lv/#stop/9105,,
0428,,"Čiekurkalna ūdenstornis",,56.98466,24.15759,https://saraksti.lv/#stop/0428,,
3217,,"Gaujas iela",,56.98646,24.16046,https://saraksti.lv/#stop/3217,,
3235,,"Gaujas iela",,56.98594,24.15971,https://saraksti.lv/#stop/3235,,
0406,,"Rusova iela/Valsts ieņēmumu dienests",,56.98874,24.16443,https://saraksti.lv/#stop/0406,,
0405,,"Rusova iela/Valsts ieņēmumu dienests",,56.98856,24.16407,https://saraksti.lv/#stop/0405,,
3216,,"Rusova iela/Valsts ieņēmumu dienests",,56.98953,24.16465,https://saraksti.lv/#stop/3216,,
3236,,"Rusova iela/Valsts ieņēmumu dienests",,56.98979,24.16483,https://saraksti.lv/#stop/3236,,
9106,,"Rusova iela/Valsts ieņēmumu dienests",,56.98903,24.16680,https://saraksti.lv/#stop/9106,,
0471,,"TEC-1",,56.98970,24.18669,https://saraksti.lv/#stop/0471,,
0472,,"TEC-1",,56.98959,24.18679,https://saraksti.lv/#stop/0472,,
0512,,"Viskaļu iela",,56.98587,24.18474,https://saraksti.lv/#stop/0512,,
0435,,"Gaujas iela",,56.98541,24.16080,https://saraksti.lv/#stop/0435,,
5088,,"Dārzciema iela",,56.94890,24.18737,https://saraksti.lv/#stop/5088,,
0310,,"Itas Kozakevičas iela",,56.95110,24.17079,https://saraksti.lv/#stop/0310,,
7990,,"Viršu iela",,56.95023,24.17745,https://saraksti.lv/#stop/7990,,
1503,,"Dārzciema iela",,56.94488,24.18275,https://saraksti.lv/#stop/1503,,
0352,,"Pildas iela",,56.94136,24.18163,https://saraksti.lv/#stop/0352,,
1508,,"Pildas iela",,56.94216,24.18216,https://saraksti.lv/#stop/1508,,
0251,,"Slāvu rotācijas aplis",,56.93201,24.18149,https://saraksti.lv/#stop/0251,,
0091,,"Slāvu rotācijas aplis",,56.93270,24.18190,https://saraksti.lv/#stop/0091,,
0454,,"Strautu iela",,56.93734,24.18209,https://saraksti.lv/#stop/0454,,
0453,,"Strautu iela",,56.93850,24.18237,https://saraksti.lv/#stop/0453,,
0479,,"Sesku iela",,56.94719,24.19604,https://saraksti.lv/#stop/0479,,
0160,,"Ilūkstes iela",,56.93170,24.19401,https://saraksti.lv/#stop/0160,,
0719,,"Lubānas iela",,56.93204,24.17378,https://saraksti.lv/#stop/0719,,
1499,,"Slāvu rotācijas aplis",,56.93145,24.18291,https://saraksti.lv/#stop/1499,,
0307,,"Itas Kozakevičas iela",,56.95016,24.17311,https://saraksti.lv/#stop/0307,,
1497,,"Vietalvas iela",,56.94544,24.17202,https://saraksti.lv/#stop/1497,,
1498,,"Vietalvas iela",,56.94501,24.17249,https://saraksti.lv/#stop/1498,,
0257,,"Piedrujas iela",,56.93965,24.17286,https://saraksti.lv/#stop/0257,,
5454,,"Piedrujas iela",,56.93991,24.17406,https://saraksti.lv/#stop/5454,,
0351,,"Pildas iela",,56.94189,24.18063,https://saraksti.lv/#stop/0351,,
5457,,"Dārzciema vidusskola",,56.94589,24.19071,https://saraksti.lv/#stop/5457,,
1502,,"Gaismas iela",,56.94553,24.18196,https://saraksti.lv/#stop/1502,,
1500,,"Skaņu iela",,56.94486,24.17612,https://saraksti.lv/#stop/1500,,
1501,,"Skaņu iela",,56.94496,24.17634,https://saraksti.lv/#stop/1501,,
7981,,"7.autobusu parks",,56.94023,24.16586,https://saraksti.lv/#stop/7981,,
0392,,"RP SIA ""Rīgas satiksme""",,56.94365,24.16486,https://saraksti.lv/#stop/0392,,
5458,,"Jaunrozes iela",,56.94470,24.16981,https://saraksti.lv/#stop/5458,,
5452,,"Matīsa kapi",,56.94707,24.15960,https://saraksti.lv/#stop/5452,,
5453,,"Matīsa kapi",,56.94731,24.15758,https://saraksti.lv/#stop/5453,,
7075a,,"Piedrujas iela",,56.93422,24.17576,https://saraksti.lv/#stop/7075a,,
7074,,"Piedrujas iela",,56.93402,24.17443,https://saraksti.lv/#stop/7074,,
7989,,"7.autobusu parks",,56.93939,24.16624,https://saraksti.lv/#stop/7989,,
0391,,"RP SIA ""Rīgas satiksme""",,56.94470,24.16468,https://saraksti.lv/#stop/0391,,
0094,,"Dārziņi",,56.85944,24.29716,https://saraksti.lv/#stop/0094,,
0533,,"Dārziņu 27.līnija",,56.86790,24.27810,https://saraksti.lv/#stop/0533,,
0534,,"Dārziņu 27.līnija",,56.86822,24.27793,https://saraksti.lv/#stop/0534,,
0538,,"Dārziņu 38.līnija",,56.86107,24.28593,https://saraksti.lv/#stop/0538,,
0537,,"Dārziņu 38.līnija",,56.86186,24.28457,https://saraksti.lv/#stop/0537,,
0540,,"Dārziņu 46.līnija",,56.85989,24.29089,https://saraksti.lv/#stop/0540,,
0541,,"Dārziņu 46.līnija",,56.85995,24.29125,https://saraksti.lv/#stop/0541,,
0411,,"Sakņu iela",,56.86331,24.28268,https://saraksti.lv/#stop/0411,,
0410,,"Sakņu iela",,56.86345,24.28237,https://saraksti.lv/#stop/0410,,
0536,,"Dārziņu 29.līnija",,56.86186,24.27614,https://saraksti.lv/#stop/0536,,
0535,,"Dārziņu 29.līnija",,56.86192,24.27634,https://saraksti.lv/#stop/0535,,
0539,,"Dārziņu 38.līnija",,56.86142,24.28424,https://saraksti.lv/#stop/0539,,
0326,,"Pagrieziens uz Dārziņiem",,56.87081,24.27247,https://saraksti.lv/#stop/0326,,
0325,,"Pagrieziens uz Dārziņiem",,56.87091,24.27284,https://saraksti.lv/#stop/0325,,
0481,,"Tīrumi",,56.87517,24.26205,https://saraksti.lv/#stop/0481,,
0480,,"Tīrumi",,56.87612,24.26033,https://saraksti.lv/#stop/0480,,
0503,,"Ābeļu iela",,56.86769,24.27077,https://saraksti.lv/#stop/0503,,
0507,,"Ābeļu iela",,56.86769,24.27092,https://saraksti.lv/#stop/0507,,
0096,,"Jāņogu iela",,56.86296,24.26872,https://saraksti.lv/#stop/0096,,
0095,,"Jāņogu iela",,56.86281,24.26882,https://saraksti.lv/#stop/0095,,
0530,,"Sakņu iela",,56.86496,24.26972,https://saraksti.lv/#stop/0530,,
0531,,"Sakņu iela",,56.86480,24.26949,https://saraksti.lv/#stop/0531,,
1163,,"Memmes pļava",,57.03509,24.01232,https://saraksti.lv/#stop/1163,,
1179,,"Memmes pļava",,57.03500,24.01272,https://saraksti.lv/#stop/1179,,
8014,,"Daugavgrīvas cietoksnis",,57.04266,24.03565,https://saraksti.lv/#stop/8014,,
1183,,"Daugavgrīvas cietoksnis",,57.04240,24.03555,https://saraksti.lv/#stop/1183,,
1161,,"Birutas Baumanes aleja",,57.03642,24.01976,https://saraksti.lv/#stop/1161,,
1180,,"Birutas Baumanes aleja",,57.03688,24.02103,https://saraksti.lv/#stop/1180,,
1162,,"Daugavgrīvas D/P",,57.03581,24.01737,https://saraksti.lv/#stop/1162,,
1159,,"Plēksnes iela",,57.04066,24.02915,https://saraksti.lv/#stop/1159,,
1182,,"Plēksnes iela",,57.04110,24.03036,https://saraksti.lv/#stop/1182,,
1160,,"Zvīņu iela",,57.03849,24.02439,https://saraksti.lv/#stop/1160,,
1181,,"Zvīņu iela",,57.03929,24.02642,https://saraksti.lv/#stop/1181,,
5343,,"A.Saharova iela",,56.94664,24.20523,https://saraksti.lv/#stop/5343,,
5036a,,"Baltinavas iela",,56.94340,24.23110,https://saraksti.lv/#stop/5036a,,
9096,,"Kaivas iela",,56.94413,24.23991,https://saraksti.lv/#stop/9096,,
5198,,"Liepiņas",,56.94460,24.22103,https://saraksti.lv/#stop/5198,,
9100,,"Ulbrokas iela 13",,56.94587,24.21135,https://saraksti.lv/#stop/9100,,
1512,,"Bērnu slimnīca ""Gaiļezers""",,56.95624,24.25706,https://saraksti.lv/#stop/1512,,
0378,,"Ratnieki",,56.95742,24.24000,https://saraksti.lv/#stop/0378,,
0409,,"S.Eizenšteina iela",,56.95951,24.23039,https://saraksti.lv/#stop/0409,,
9090,,"Ē.Valtera iela",,56.94559,24.23705,https://saraksti.lv/#stop/9090,,
5101a,,"Dreiliņu rotācijas aplis",,56.94365,24.24481,https://saraksti.lv/#stop/5101a,,
9097,,"Dreiliņu rotācijas aplis",,56.94337,24.24604,https://saraksti.lv/#stop/9097,,
7997,,"Stigu iela",,56.95373,24.21686,https://saraksti.lv/#stop/7997,,
9092,,"Latvenergo",,56.95318,24.22166,https://saraksti.lv/#stop/9092,,
9093,,"Latvenergo",,56.95313,24.22138,https://saraksti.lv/#stop/9093,,
0489,,"Dzelzavas iela",,56.94822,24.23698,https://saraksti.lv/#stop/0489,,
9119,,"Dreiliņupīte",,56.94708,24.24618,https://saraksti.lv/#stop/9119,,
0459,,"Jaunbiķeri",,56.95230,24.25009,https://saraksti.lv/#stop/0459,,
9098,,"Ulbrokas iela 48",,56.95770,24.22783,https://saraksti.lv/#stop/9098,,
9099,,"Ulbrokas iela 48",,56.95857,24.22853,https://saraksti.lv/#stop/9099,,
0614,,"Saldus iela",,56.96213,24.06358,https://saraksti.lv/#stop/0614,,
0638,,"Saldus iela",,56.96168,24.06491,https://saraksti.lv/#stop/0638,,
1226,,"Dzegužkalns",,56.96220,24.07116,https://saraksti.lv/#stop/1226,,
1227,,"Dzegužkalns",,56.96120,24.07073,https://saraksti.lv/#stop/1227,,
0612,,"Kliņģeru iela",,56.95329,24.07043,https://saraksti.lv/#stop/0612,,
0640,,"Kliņģeru iela",,56.95293,24.07030,https://saraksti.lv/#stop/0640,,
0613,,"Ūdens iela",,56.95628,24.07041,https://saraksti.lv/#stop/0613,,
0639,,"Ūdens iela",,56.95523,24.06984,https://saraksti.lv/#stop/0639,,
1118,,"Botāniskais dārzs/Rīgas Stradiņa universitāte",,56.95204,24.05391,https://saraksti.lv/#stop/1118,,
1235,,"Dārza iela/Rīgas Stradiņa universitāte",,56.95287,24.05353,https://saraksti.lv/#stop/1235,,
1233,,"Mazā Stacijas iela",,56.95958,24.05224,https://saraksti.lv/#stop/1233,,
1119,,"Sēlpils iela/Donoru centrs",,56.95693,24.05248,https://saraksti.lv/#stop/1119,,
1234,,"Sēlpils iela/Donoru centrs",,56.95615,24.05262,https://saraksti.lv/#stop/1234,,
3037,,"Botāniskais dārzs/Rīgas Stradiņa universitāte",,56.95127,24.05369,https://saraksti.lv/#stop/3037,,
3048,,"Botāniskais dārzs/Rīgas Stradiņa universitāte",,56.95122,24.05279,https://saraksti.lv/#stop/3048,,
3038,,"Baldones iela",,56.95067,24.06642,https://saraksti.lv/#stop/3038,,
3047,,"Baldones iela",,56.95076,24.06559,https://saraksti.lv/#stop/3047,,
3060,,"Pulka sēta",,56.95465,24.06297,https://saraksti.lv/#stop/3060,,
3101,,"Pulka sēta",,56.95512,24.06304,https://saraksti.lv/#stop/3101,,
3058,,"Saldus iela",,56.95905,24.06033,https://saraksti.lv/#stop/3058,,
0617,,"Saulgožu iela",,56.96132,24.04769,https://saraksti.lv/#stop/0617,,
0635,,"Saulgožu iela",,56.96121,24.04849,https://saraksti.lv/#stop/0635,,
3028,,"Jūrmalas gatve",,56.95199,24.04580,https://saraksti.lv/#stop/3028,,
1622,,"Gaismas pamatskola",,56.89417,24.23848,https://saraksti.lv/#stop/1622,,
1623,,"Gaismas pamatskola",,56.89444,24.23828,https://saraksti.lv/#stop/1623,,
0205,,"Getliņi",,56.88396,24.25718,https://saraksti.lv/#stop/0205,,
0003,,"A.Čaka iela",,56.96361,24.14962,https://saraksti.lv/#stop/0003,,
0345,,"Pērnavas iela",,56.96325,24.14959,https://saraksti.lv/#stop/0345,,
0470,,"Tallinas iela",,56.95896,24.14143,https://saraksti.lv/#stop/0470,,
0098,,"Daugavas stadions",,56.95332,24.15537,https://saraksti.lv/#stop/0098,,
0244,,"Lienes iela",,56.95365,24.14774,https://saraksti.lv/#stop/0244,,
0081,,"Cēsu iela",,56.96554,24.14331,https://saraksti.lv/#stop/0081,,
0219,,"K.Barona iela",,56.96786,24.14997,https://saraksti.lv/#stop/0219,,
2067,,"Grīziņkalns",,56.95625,24.15230,https://saraksti.lv/#stop/2067,,
2078,,"Lienes iela",,56.95397,24.14748,https://saraksti.lv/#stop/2078,,
3134,,"Brīvības iela",,56.96804,24.15100,https://saraksti.lv/#stop/3134,,
3118,,"K.Barona iela",,56.96758,24.15066,https://saraksti.lv/#stop/3118,,
3119,,"Pērnavas iela",,56.96559,24.14934,https://saraksti.lv/#stop/3119,,
3133,,"Pērnavas iela",,56.96499,24.14873,https://saraksti.lv/#stop/3133,,
3120,,"Sporta nams ""Daugava""",,56.96280,24.14438,https://saraksti.lv/#stop/3120,,
3132,,"Sporta nams ""Daugava""",,56.96258,24.14398,https://saraksti.lv/#stop/3132,,
5292,,"A.Čaka iela",,56.96317,24.15087,https://saraksti.lv/#stop/5292,,
5293,,"A.Čaka iela",,56.96319,24.15107,https://saraksti.lv/#stop/5293,,
0064,,"Brīvības iela",,56.96582,24.14866,https://saraksti.lv/#stop/0064,,
5145,,"Grīziņkalns",,56.95594,24.15296,https://saraksti.lv/#stop/5145,,
5144,,"Grīziņkalns",,56.95708,24.15287,https://saraksti.lv/#stop/5144,,
0344,,"Pērnavas iela",,56.96601,24.14827,https://saraksti.lv/#stop/0344,,
8025,,"Vārnu iela",,56.95926,24.15202,https://saraksti.lv/#stop/8025,,
2079,,"Vārnu iela",,56.96027,24.15191,https://saraksti.lv/#stop/2079,,
2028,,"A.Čaka iela",,56.95928,24.14342,https://saraksti.lv/#stop/2028,,
2041,,"A.Čaka iela",,56.95885,24.14399,https://saraksti.lv/#stop/2041,,
2030,,"Brīvības iela",,56.96260,24.13789,https://saraksti.lv/#stop/2030,,
2026,,"J.Asara iela",,56.95445,24.15138,https://saraksti.lv/#stop/2026,,
2043,,"J.Asara iela",,56.95562,24.15011,https://saraksti.lv/#stop/2043,,
2029,,"K.Barona iela",,56.96060,24.14112,https://saraksti.lv/#stop/2029,,
2027,,"Vārnu iela",,56.95787,24.14608,https://saraksti.lv/#stop/2027,,
2042,,"Vārnu iela",,56.95713,24.14728,https://saraksti.lv/#stop/2042,,
0637,,"Buļļu iela",,56.96477,24.05906,https://saraksti.lv/#stop/0637,,
1220,,"Buļļu iela",,56.96648,24.05547,https://saraksti.lv/#stop/1220,,
0615,,"Dzirciema iela",,56.96475,24.05937,https://saraksti.lv/#stop/0615,,
1221,,"Dzirciema iela",,56.96598,24.05635,https://saraksti.lv/#stop/1221,,
1208,,"Garā iela",,56.96898,24.05030,https://saraksti.lv/#stop/1208,,
1209,,"Garā iela",,56.96860,24.05110,https://saraksti.lv/#stop/1209,,
1206,,"Saulgožu iela",,56.96970,24.04722,https://saraksti.lv/#stop/1206,,
1207,,"Saulgožu iela",,56.96963,24.04860,https://saraksti.lv/#stop/1207,,
3057,,"Buļļu iela",,56.96368,24.06226,https://saraksti.lv/#stop/3057,,
3104,,"Buļļu iela",,56.96400,24.06272,https://saraksti.lv/#stop/3104,,
1228,,"Iļģuciems",,56.96578,24.07159,https://saraksti.lv/#stop/1228,,
1229,,"Iļģuciems",,56.96597,24.07146,https://saraksti.lv/#stop/1229,,
1129,,"Lidoņu iela",,56.97111,24.07343,https://saraksti.lv/#stop/1129,,
1130,,"Lidoņu iela",,56.97145,24.07331,https://saraksti.lv/#stop/1130,,
1131,,"Spilves lidlauks",,56.97415,24.07559,https://saraksti.lv/#stop/1131,,
1126,,"Buļļu iela",,56.96695,24.05778,https://saraksti.lv/#stop/1126,,
1212,,"Dzirciema iela 119",,56.97406,24.05583,https://saraksti.lv/#stop/1212,,
1217,,"Dzirciema iela 119",,56.97404,24.05572,https://saraksti.lv/#stop/1217,,
1124,,"Slokas iela",,56.96144,24.05387,https://saraksti.lv/#stop/1124,,
0616,,"Vaidelotes iela",,56.96418,24.05568,https://saraksti.lv/#stop/0616,,
0636,,"Vaidelotes iela",,56.96335,24.05526,https://saraksti.lv/#stop/0636,,
1127,,"Cementa iela",,56.96937,24.05913,https://saraksti.lv/#stop/1127,,
1231,,"Cementa iela",,56.96870,24.05852,https://saraksti.lv/#stop/1231,,
1128,,"Spilves iela",,56.97170,24.06499,https://saraksti.lv/#stop/1128,,
1230,,"Spilves iela",,56.97159,24.06331,https://saraksti.lv/#stop/1230,,
3055,,"Iļģuciems",,56.96489,24.06795,https://saraksti.lv/#stop/3055,,
3105,,"Iļģuciems",,56.96486,24.06886,https://saraksti.lv/#stop/3105,,
3103,,"Saldus iela",,56.95935,24.06012,https://saraksti.lv/#stop/3103,,
1219,,"Skodas iela",,56.97104,24.04999,https://saraksti.lv/#stop/1219,,
1210,,"Skodas iela",,56.97117,24.05056,https://saraksti.lv/#stop/1210,,
1218,,"Spilves iela 16",,56.97192,24.05216,https://saraksti.lv/#stop/1218,,
1211,,"Spilves iela 16",,56.97202,24.05267,https://saraksti.lv/#stop/1211,,
1077,,"Anniņmuižas mežaparks",,56.95402,24.00860,https://saraksti.lv/#stop/1077,,
1084,,"Anniņmuižas mežaparks",,56.95538,24.00893,https://saraksti.lv/#stop/1084,,
1072,,"Dammes iela",,56.95990,24.01233,https://saraksti.lv/#stop/1072,,
1085,,"Dammes iela",,56.96003,24.01380,https://saraksti.lv/#stop/1085,,
1071,,"Kleistu iela",,56.96024,24.01804,https://saraksti.lv/#stop/1071,,
1086,,"Kleistu iela",,56.95885,24.02189,https://saraksti.lv/#stop/1086,,
3033,,"Kleistu iela",,56.95985,24.02042,https://saraksti.lv/#stop/3033,,
3052,,"Kleistu iela",,56.95998,24.02001,https://saraksti.lv/#stop/3052,,
1070,,"Imantas iela",,56.95753,24.02616,https://saraksti.lv/#stop/1070,,
1087,,"Imantas iela",,56.95743,24.02830,https://saraksti.lv/#stop/1087,,
3034,,"Imantas iela",,56.95759,24.02667,https://saraksti.lv/#stop/3034,,
3051,,"Imantas iela",,56.95760,24.02651,https://saraksti.lv/#stop/3051,,
1202,,"Lāčupīte",,56.97504,24.03644,https://saraksti.lv/#stop/1202,,
1203,,"Lāčupīte",,56.97517,24.03637,https://saraksti.lv/#stop/1203,,
1204,,"Virbu iela",,56.97233,24.04089,https://saraksti.lv/#stop/1204,,
1205,,"Virbu iela",,56.97152,24.04234,https://saraksti.lv/#stop/1205,,
3032,,"Dammes iela",,56.96094,24.01415,https://saraksti.lv/#stop/3032,,
3053,,"Dammes iela",,56.96114,24.01394,https://saraksti.lv/#stop/3053,,
3031,,"Imanta",,56.96615,24.00822,https://saraksti.lv/#stop/3031,,
3054,,"Imanta",,56.96579,24.00886,https://saraksti.lv/#stop/3054,,
1457,,"Anniņmuižas mežaparks",,56.95356,24.00995,https://saraksti.lv/#stop/1457,,
1456,,"Anniņmuižas mežaparks",,56.95348,24.01100,https://saraksti.lv/#stop/1456,,
1452,,"Beberbeķu iela",,56.95371,23.97203,https://saraksti.lv/#stop/1452,,
1551,,"Beberbeķu iela",,56.95394,23.97189,https://saraksti.lv/#stop/1551,,
1078,,"Dubultu iela",,56.95343,24.00414,https://saraksti.lv/#stop/1078,,
1083,,"Dubultu iela",,56.95341,24.00551,https://saraksti.lv/#stop/1083,,
1449,,"Ērkšķu iela",,56.95349,23.99015,https://saraksti.lv/#stop/1449,,
1455,,"Ērkšķu iela",,56.95344,23.99078,https://saraksti.lv/#stop/1455,,
1460,,"Imantas 7.līnija",,56.95227,24.02298,https://saraksti.lv/#stop/1460,,
1461,,"Imantas 7.līnija",,56.95230,24.02425,https://saraksti.lv/#stop/1461,,
1462,,"Kooperatīva iela",,56.95220,24.02931,https://saraksti.lv/#stop/1462,,
1463,,"Kooperatīva iela",,56.95213,24.03037,https://saraksti.lv/#stop/1463,,
1043,,"Kurzemes prospekts",,56.95214,24.03689,https://saraksti.lv/#stop/1043,,
1089,,"Kurzemes prospekts",,56.95204,24.03651,https://saraksti.lv/#stop/1089,,
1451,,"Ķiburgas iela",,56.95374,23.97869,https://saraksti.lv/#stop/1451,,
1453,,"Ķiburgas iela",,56.95366,23.97973,https://saraksti.lv/#stop/1453,,
1450,,"Lazdu iela",,56.95359,23.98530,https://saraksti.lv/#stop/1450,,
1454,,"Lazdu iela",,56.95359,23.98307,https://saraksti.lv/#stop/1454,,
1458,,"Muižas iela",,56.95310,24.01623,https://saraksti.lv/#stop/1458,,
1459,,"Muižas iela",,56.95293,24.01682,https://saraksti.lv/#stop/1459,,
1079,,"Zolitūdes iela",,56.95325,23.99809,https://saraksti.lv/#stop/1079,,
1082,,"Zolitūdes iela",,56.95323,23.99900,https://saraksti.lv/#stop/1082,,
0621,,"6.autobusu parks",,56.97180,24.03138,https://saraksti.lv/#stop/0621,,
0631,,"6.autobusu parks",,56.97230,24.03165,https://saraksti.lv/#stop/0631,,
9082,,"Anniņmuižas Jaunā pamatskola",,56.96254,24.02337,https://saraksti.lv/#stop/9082,,
0620,,"Mellužu iela",,56.96666,24.02697,https://saraksti.lv/#stop/0620,,
0632,,"Mellužu iela",,56.96696,24.02704,https://saraksti.lv/#stop/0632,,
1024,,"Airītes iela",,56.95932,23.99724,https://saraksti.lv/#stop/1024,,
1608,,"Airītes iela",,56.95992,23.99775,https://saraksti.lv/#stop/1608,,
0619,,"ATC ""Latina""",,56.96343,24.03021,https://saraksti.lv/#stop/0619,,
0633,,"ATC ""Latina""",,56.96326,24.02967,https://saraksti.lv/#stop/0633,,
3035,,"Bebru iela",,56.95680,24.03471,https://saraksti.lv/#stop/3035,,
3050,,"Bebru iela",,56.95692,24.03484,https://saraksti.lv/#stop/3050,,
1080,,"Ceriņu iela",,56.95561,23.99773,https://saraksti.lv/#stop/1080,,
1081,,"Ceriņu iela",,56.95681,23.99734,https://saraksti.lv/#stop/1081,,
1059,,"Dammes iela",,56.96811,24.00956,https://saraksti.lv/#stop/1059,,
1065,,"Dammes iela",,56.96851,24.01114,https://saraksti.lv/#stop/1065,,
1060,,"Imanta 4",,56.96485,24.00227,https://saraksti.lv/#stop/1060,,
1064,,"Imanta 4",,56.96549,24.00436,https://saraksti.lv/#stop/1064,,
1062c,,"Imantas D/P",,56.96013,23.99620,https://saraksti.lv/#stop/1062c,,
1062e,,"Imantas D/P",,56.96019,23.99568,https://saraksti.lv/#stop/1062e,,
1088,,"Jūrmalas gatve",,56.95367,24.03464,https://saraksti.lv/#stop/1088,,
3036,,"Jūrmalas gatve",,56.95252,24.03480,https://saraksti.lv/#stop/3036,,
1057,,"Kleistu iela",,56.96656,24.02311,https://saraksti.lv/#stop/1057,,
1067,,"Kleistu iela",,56.96659,24.02210,https://saraksti.lv/#stop/1067,,
3049,,"Kurzemes prospekts",,56.95278,24.03502,https://saraksti.lv/#stop/3049,,
1061,,"Pagrieziens uz Babīti",,56.96199,23.99872,https://saraksti.lv/#stop/1061,,
1063,,"Pagrieziens uz Babīti",,56.96292,23.99980,https://saraksti.lv/#stop/1063,,
1044,,"Progresa iela",,56.95543,24.03528,https://saraksti.lv/#stop/1044,,
1045,,"Progresa iela",,56.95789,24.03530,https://saraksti.lv/#stop/1045,,
1058,,"Rigondas gatve",,56.96903,24.01752,https://saraksti.lv/#stop/1058,,
1066,,"Rigondas gatve",,56.96855,24.01770,https://saraksti.lv/#stop/1066,,
1046,,"Sudrabkalniņš",,56.96097,24.03524,https://saraksti.lv/#stop/1046,,
1069,,"Sudrabkalniņš",,56.95992,24.03475,https://saraksti.lv/#stop/1069,,
0618,,"Observatorijas iela",,56.96187,24.03932,https://saraksti.lv/#stop/0618,,
0634,,"Observatorijas iela",,56.96177,24.03934,https://saraksti.lv/#stop/0634,,
3025,,"Jaunsaules iela",,56.95512,24.04559,https://saraksti.lv/#stop/3025,,
3027,,"Jaunsaules iela",,56.95483,24.04556,https://saraksti.lv/#stop/3027,,
3026,,"Tapešu iela",,56.95768,24.04643,https://saraksti.lv/#stop/3026,,
1073,,"96.vidusskola",,56.95948,24.00500,https://saraksti.lv/#stop/1073,,
1076,,"96.vidusskola",,56.95896,24.00681,https://saraksti.lv/#stop/1076,,
1074,,"Vīksnes iela",,56.96055,24.00051,https://saraksti.lv/#stop/1074,,
1075,,"Vīksnes iela",,56.96014,24.00183,https://saraksti.lv/#stop/1075,,
7012,,"Anniņmuižas Jaunā pamatskola",,56.96122,24.02205,https://saraksti.lv/#stop/7012,,
10622,,"Imantas D/P",,56.96045,23.99724,https://saraksti.lv/#stop/10622,,
1062a,,"Imantas D/P",,56.96033,23.99665,https://saraksti.lv/#stop/1062a,,
0529,,"Jaunciema 8.šķērslīnija",,57.03792,24.18472,https://saraksti.lv/#stop/0529,,
0173,,"Jaunciema kapi",,57.04154,24.18861,https://saraksti.lv/#stop/0173,,
0355,,"Jaunciema 1.šķērslīnija",,57.05048,24.17211,https://saraksti.lv/#stop/0355,,
0356,,"Jaunciema 1.šķērslīnija",,57.05068,24.17222,https://saraksti.lv/#stop/0356,,
0102,,"Jaunciema 10.šķērslīnija",,57.03184,24.18769,https://saraksti.lv/#stop/0102,,
0103,,"Jaunciema 10.šķērslīnija",,57.03204,24.18777,https://saraksti.lv/#stop/0103,,
0133,,"Jaunciema 2.šķērslīnija",,57.04570,24.17339,https://saraksti.lv/#stop/0133,,
0135,,"Jaunciema 2.šķērslīnija",,57.04600,24.17357,https://saraksti.lv/#stop/0135,,
0083,,"Jaunciema 4.šķērslīnija",,57.04173,24.17343,https://saraksti.lv/#stop/0083,,
0084,,"Jaunciema 4.šķērslīnija",,57.04245,24.17345,https://saraksti.lv/#stop/0084,,
0501,,"Jaunciema 6.šķērslīnija",,57.03949,24.17524,https://saraksti.lv/#stop/0501,,
0508,,"Jaunciema 6.šķērslīnija",,57.03863,24.17563,https://saraksti.lv/#stop/0508,,
0185,,"Pagrieziens uz Jaunciema kapiem",,57.03660,24.18448,https://saraksti.lv/#stop/0185,,
0186,,"Pagrieziens uz Jaunciema kapiem",,57.03696,24.18279,https://saraksti.lv/#stop/0186,,
0522,,"Zundagi",,57.05257,24.16823,https://saraksti.lv/#stop/0522,,
0521,,"Zundagi",,57.05236,24.16941,https://saraksti.lv/#stop/0521,,
3106,,"Jugla",,56.98973,24.24057,https://saraksti.lv/#stop/3106,,
3146,,"Jugla",,56.98977,24.24152,https://saraksti.lv/#stop/3146,,
0180,,"Juglas iela",,56.98901,24.23837,https://saraksti.lv/#stop/0180,,
0181,,"Juglas iela",,56.98996,24.24245,https://saraksti.lv/#stop/0181,,
0301,,"Mārkalnes iela",,56.98809,24.23085,https://saraksti.lv/#stop/0301,,
3107,,"Mārkalnes iela",,56.98801,24.22874,https://saraksti.lv/#stop/3107,,
3145,,"Mārkalnes iela",,56.98806,24.22943,https://saraksti.lv/#stop/3145,,
3109,,"Meža skola",,56.98630,24.21433,https://saraksti.lv/#stop/3109,,
3143,,"Meža skola",,56.98637,24.21506,https://saraksti.lv/#stop/3143,,
3247,,"Meža skola",,56.98625,24.21517,https://saraksti.lv/#stop/3247,,
0436,,"Sporta akadēmija",,56.98551,24.20957,https://saraksti.lv/#stop/0436,,
0045,,"Tirzas iela",,56.98713,24.22266,https://saraksti.lv/#stop/0045,,
3108,,"Tirzas iela",,56.98723,24.22210,https://saraksti.lv/#stop/3108,,
3144,,"Tirzas iela",,56.98728,24.22280,https://saraksti.lv/#stop/3144,,
0363,,"Ciemupes iela",,56.98800,24.24451,https://saraksti.lv/#stop/0363,,
0177,,"Jugla",,56.97539,24.25444,https://saraksti.lv/#stop/0177,,
0176,,"Jugla",,56.97680,24.25447,https://saraksti.lv/#stop/0176,,
0339,,"Pāles iela",,56.98676,24.24812,https://saraksti.lv/#stop/0339,,
0338,,"Pāles iela",,56.98531,24.24798,https://saraksti.lv/#stop/0338,,
0165,,"Strazdumuižas vidusskola",,56.98258,24.25132,https://saraksti.lv/#stop/0165,,
0166,,"Strazdumuižas vidusskola",,56.98277,24.25069,https://saraksti.lv/#stop/0166,,
0430,,"Ūdeļu iela",,56.97561,24.25291,https://saraksti.lv/#stop/0430,,
0427,,"Ūdeļu iela",,56.97577,24.25352,https://saraksti.lv/#stop/0427,,
0525,,"Liepkalna iela",,56.97214,24.26302,https://saraksti.lv/#stop/0525,,
0526,,"Liepkalna iela",,56.97238,24.26228,https://saraksti.lv/#stop/0526,,
0138,,"Mazā Juglas iela",,56.97041,24.27056,https://saraksti.lv/#stop/0138,,
0170,,"Jugla",,56.97801,24.25489,https://saraksti.lv/#stop/0170,,
0179,,"Jugla",,56.97772,24.25484,https://saraksti.lv/#stop/0179,,
0232,,"Kvēles iela",,56.98042,24.24459,https://saraksti.lv/#stop/0232,,
0231,,"Kvēles iela",,56.98077,24.24378,https://saraksti.lv/#stop/0231,,
0706,,"Mārkalnes iela",,56.98771,24.23040,https://saraksti.lv/#stop/0706,,
0303,,"Murjāņu iela",,56.97882,24.25009,https://saraksti.lv/#stop/0303,,
0302,,"Murjāņu iela",,56.97900,24.24919,https://saraksti.lv/#stop/0302,,
0061,,"Brīvības gatve",,56.98856,24.23747,https://saraksti.lv/#stop/0061,,
0424,,"Silciema iela",,56.98832,24.23743,https://saraksti.lv/#stop/0424,,
0505,,"Slēpotāju iela",,56.98553,24.23903,https://saraksti.lv/#stop/0505,,
0506,,"Slēpotāju iela",,56.98469,24.23924,https://saraksti.lv/#stop/0506,,
0062,,"Sporta akadēmija",,56.98450,24.20930,https://saraksti.lv/#stop/0062,,
1801,,"Mārkalnes iela",,56.98809,24.22881,https://saraksti.lv/#stop/1801,,
1803,,"Meža skola",,56.98637,24.21404,https://saraksti.lv/#stop/1803,,
1804,,"Sporta akadēmija",,56.98582,24.20966,https://saraksti.lv/#stop/1804,,
1802,,"Tirzas iela",,56.98735,24.22240,https://saraksti.lv/#stop/1802,,
0285,,"Dambjapurva iela",,56.97372,24.24305,https://saraksti.lv/#stop/0285,,
1303,,"Dzelzskalni",,56.88337,24.18330,https://saraksti.lv/#stop/1303,,
1306,,"Dzelzskalni",,56.88336,24.18274,https://saraksti.lv/#stop/1306,,
1304,,"Kalnavoti",,56.88324,24.18980,https://saraksti.lv/#stop/1304,,
8056,,"Kalnavoti",,56.88315,24.18988,https://saraksti.lv/#stop/8056,,
1305,,"Katlakalns",,56.88444,24.19306,https://saraksti.lv/#stop/1305,,
1052,,"Baltegļu iela",,56.97730,24.02667,https://saraksti.lv/#stop/1052,,
1051,,"Kleistu iela",,56.97595,24.03262,https://saraksti.lv/#stop/1051,,
1053,,"Kleistu iela",,56.97577,24.03330,https://saraksti.lv/#stop/1053,,
1194,,"Bumbu kalniņš",,57.00249,24.02761,https://saraksti.lv/#stop/1194,,
1195,,"Bumbu kalniņš",,57.00324,24.02751,https://saraksti.lv/#stop/1195,,
0622,,"Gaiļi",,56.97606,24.03511,https://saraksti.lv/#stop/0622,,
0630,,"Gaiļi",,56.97492,24.03392,https://saraksti.lv/#stop/0630,,
1192,,"Jaunie Bolderājas kapi",,57.01715,24.01762,https://saraksti.lv/#stop/1192,,
1193,,"Jaunie Bolderājas kapi",,57.01671,24.01797,https://saraksti.lv/#stop/1193,,
0623,,"Kleistu iela 37",,56.97889,24.03557,https://saraksti.lv/#stop/0623,,
0629,,"Kleistu iela 37",,56.97801,24.03554,https://saraksti.lv/#stop/0629,,
1198,,"Pagrieziens uz Kleistiem",,56.98431,24.03281,https://saraksti.lv/#stop/1198,,
1199,,"Pagrieziens uz Kleistiem",,56.98294,24.03337,https://saraksti.lv/#stop/1199,,
1196,,"Spilves pļavas",,56.99789,24.02935,https://saraksti.lv/#stop/1196,,
1197,,"Spilves pļavas",,56.99717,24.02943,https://saraksti.lv/#stop/1197,,
1190,,"Lielā iela",,57.02211,24.01856,https://saraksti.lv/#stop/1190,,
1191,,"Lielā iela",,57.02200,24.01860,https://saraksti.lv/#stop/1191,,
0626,,"Kleisti",,56.98686,24.01407,https://saraksti.lv/#stop/0626,,
0626a,,"Kleisti",,56.98702,24.01420,https://saraksti.lv/#stop/0626a,,
0625,,"Mikrobioloģijas institūts",,56.98505,24.02564,https://saraksti.lv/#stop/0625,,
0627,,"Mikrobioloģijas institūts",,56.98496,24.02532,https://saraksti.lv/#stop/0627,,
0624,,"Pagrieziens uz Kleistiem",,56.98376,24.03169,https://saraksti.lv/#stop/0624,,
10521,,"Baltegļu iela",,56.97716,24.02589,https://saraksti.lv/#stop/10521,,
9116,,"Lāčupes kapi",,56.97625,24.02474,https://saraksti.lv/#stop/9116,,
0429,,"Kundziņsala",,57.00107,24.10583,https://saraksti.lv/#stop/0429,,
0478,,"Aglonas iela",,56.91205,24.17730,https://saraksti.lv/#stop/0478,,
0477,,"Aglonas iela",,56.91277,24.17724,https://saraksti.lv/#stop/0477,,
0203,,"Dienvidu tilts",,56.92137,24.17137,https://saraksti.lv/#stop/0203,,
0204,,"Dienvidu tilts",,56.92145,24.17049,https://saraksti.lv/#stop/0204,,
3154,,"Dienvidu tilts",,56.92139,24.17105,https://saraksti.lv/#stop/3154,,
3178,,"Dienvidu tilts",,56.92101,24.17125,https://saraksti.lv/#stop/3178,,
0230,,"Eglaines iela/Dole",,56.90503,24.19140,https://saraksti.lv/#stop/0230,,
0229,,"Eglaines iela/Dole",,56.90472,24.19117,https://saraksti.lv/#stop/0229,,
3148,,"Eglaines iela/Dole",,56.90638,24.18823,https://saraksti.lv/#stop/3148,,
3184,,"Eglaines iela/Dole",,56.90642,24.18803,https://saraksti.lv/#stop/3184,,
0202,,"Ikšķiles iela",,56.90037,24.20276,https://saraksti.lv/#stop/0202,,
0201,,"Ikšķiles iela",,56.89931,24.20456,https://saraksti.lv/#stop/0201,,
0198,,"Ķengaraga iela",,56.91887,24.17329,https://saraksti.lv/#stop/0198,,
0197,,"Ķengaraga iela",,56.91763,24.17343,https://saraksti.lv/#stop/0197,,
3153,,"Ķengaraga iela",,56.91850,24.17324,https://saraksti.lv/#stop/3153,,
3179,,"Ķengaraga iela",,56.91808,24.17344,https://saraksti.lv/#stop/3179,,
0261,,"Malnavas iela",,56.90766,24.18506,https://saraksti.lv/#stop/0261,,
0262,,"Malnavas iela",,56.90874,24.18352,https://saraksti.lv/#stop/0262,,
3149,,"Malnavas iela",,56.90875,24.18302,https://saraksti.lv/#stop/3149,,
3183,,"Malnavas iela",,56.90850,24.18357,https://saraksti.lv/#stop/3183,,
0370,,"Prūšu iela",,56.91422,24.17554,https://saraksti.lv/#stop/0370,,
0369,,"Prūšu iela",,56.91452,24.17597,https://saraksti.lv/#stop/0369,,
3152,,"Prūšu iela",,56.91469,24.17557,https://saraksti.lv/#stop/3152,,
3180,,"Prūšu iela",,56.91426,24.17575,https://saraksti.lv/#stop/3180,,
0376,,"Rasas iela",,56.90180,24.19860,https://saraksti.lv/#stop/0376,,
0377,,"Rasas iela",,56.90280,24.19686,https://saraksti.lv/#stop/0377,,
0401,,"Rušonu iela",,56.91067,24.17951,https://saraksti.lv/#stop/0401,,
0404,,"Rušonu iela",,56.90982,24.17997,https://saraksti.lv/#stop/0404,,
3150,,"Rušonu iela",,56.91050,24.17936,https://saraksti.lv/#stop/3150,,
3182,,"Rušonu iela",,56.91011,24.17984,https://saraksti.lv/#stop/3182,,
0513,,"Višķu iela",,56.89627,24.21180,https://saraksti.lv/#stop/0513,,
0515,,"Višķu iela",,56.89632,24.21241,https://saraksti.lv/#stop/0515,,
0100,,"Daugmales stacija",,56.91003,24.19949,https://saraksti.lv/#stop/0100,,
0101,,"Daugmales stacija",,56.91068,24.19835,https://saraksti.lv/#stop/0101,,
0155,,"Ikšķiles iela",,56.90482,24.20966,https://saraksti.lv/#stop/0155,,
0154,,"Ikšķiles iela",,56.90477,24.21006,https://saraksti.lv/#stop/0154,,
0248,,"Lokomotīves iela",,56.90799,24.20377,https://saraksti.lv/#stop/0248,,
0249,,"Lokomotīves iela",,56.90786,24.20378,https://saraksti.lv/#stop/0249,,
0502,,"Mūzikas skola",,56.91559,24.18970,https://saraksti.lv/#stop/0502,,
0402,,"Rušonu iela",,56.91646,24.18842,https://saraksti.lv/#stop/0402,,
0425,,"Šķirotavas stacija",,56.90260,24.21408,https://saraksti.lv/#stop/0425,,
0426,,"Šķirotavas stacija",,56.90313,24.21333,https://saraksti.lv/#stop/0426,,
2083,,"Bultu iela",,56.90999,24.19486,https://saraksti.lv/#stop/2083,,
2089,,"Bultu iela",,56.90904,24.19607,https://saraksti.lv/#stop/2089,,
2091,,"Ikšķiles iela",,56.90425,24.20854,https://saraksti.lv/#stop/2091,,
2084,,"Malnavas iela",,56.91253,24.19111,https://saraksti.lv/#stop/2084,,
2088,,"Malnavas iela",,56.91153,24.19252,https://saraksti.lv/#stop/2088,,
2082,,"Plostu iela",,56.90675,24.20026,https://saraksti.lv/#stop/2082,,
2090,,"Plostu iela",,56.90627,24.20143,https://saraksti.lv/#stop/2090,,
2081,,"Prūšu iela",,56.90459,24.20812,https://saraksti.lv/#stop/2081,,
2087,,"Rušonu iela",,56.91439,24.18579,https://saraksti.lv/#stop/2087,,
2085,,"Rušonu iela",,56.91527,24.18553,https://saraksti.lv/#stop/2085,,
0199,,"""Kuzņecovs""",,56.92423,24.17851,https://saraksti.lv/#stop/0199,,
0200,,"""Kuzņecovs""",,56.92474,24.17812,https://saraksti.lv/#stop/0200,,
0171,,"Jāņavārti",,56.91994,24.18381,https://saraksti.lv/#stop/0171,,
0172,,"Jāņavārti",,56.91945,24.18469,https://saraksti.lv/#stop/0172,,
0403,,"Rušonu iela",,56.91769,24.18695,https://saraksti.lv/#stop/0403,,
0723,,"Višķu iela",,56.89919,24.21493,https://saraksti.lv/#stop/0723,,
0299,,"Višķu iela 3",,56.89776,24.21248,https://saraksti.lv/#stop/0299,,
0300,,"Višķu iela/trol. galapunkts",,56.90014,24.21653,https://saraksti.lv/#stop/0300,,
2137,,"Višķu iela",,56.89980,24.21582,https://saraksti.lv/#stop/2137,,
0611,,"Ķīpsala",,56.94991,24.08708,https://saraksti.lv/#stop/0611,,
0642,,"Ķīpsala",,56.94921,24.08672,https://saraksti.lv/#stop/0642,,
0730,,"Matrožu iela",,56.96335,24.07984,https://saraksti.lv/#stop/0730,,
1809,,"Ģipša iela",,56.95912,24.08248,https://saraksti.lv/#stop/1809,,
1810,,"Ģipša iela",,56.95910,24.08197,https://saraksti.lv/#stop/1810,,
1807,,"Kaiju iela",,56.95650,24.08096,https://saraksti.lv/#stop/1807,,
1808,,"Kaiju iela",,56.95698,24.08091,https://saraksti.lv/#stop/1808,,
1805,,"Rīgas Tehniskā universitāte",,56.95233,24.08401,https://saraksti.lv/#stop/1805,,
1806,,"Rīgas Tehniskā universitāte",,56.95247,24.08370,https://saraksti.lv/#stop/1806,,
0544,,"Krievupes iela",,57.00808,24.32820,https://saraksti.lv/#stop/0544,,
0545,,"Krievupes iela",,57.00835,24.32820,https://saraksti.lv/#stop/0545,,
0235,,"Langstiņi",,57.01010,24.32636,https://saraksti.lv/#stop/0235,,
0234,,"Langstiņi",,57.01032,24.32652,https://saraksti.lv/#stop/0234,,
0192,,"Mediķu iela",,57.00384,24.33165,https://saraksti.lv/#stop/0192,,
0191,,"Mediķu iela",,57.00390,24.33180,https://saraksti.lv/#stop/0191,,
7749a,,"Abrenes iela",,56.94608,24.13020,https://saraksti.lv/#stop/7749a,,
7749,,"Abrenes iela",,56.94610,24.12994,https://saraksti.lv/#stop/7749,,
7749b,,"Abrenes iela",,56.94607,24.13052,https://saraksti.lv/#stop/7749b,,
7749c,,"Abrenes iela",,56.94607,24.13079,https://saraksti.lv/#stop/7749c,,
7749d,,"Abrenes iela",,56.94609,24.13124,https://saraksti.lv/#stop/7749d,,
3011,,"Centrāltirgus",,56.94411,24.11433,https://saraksti.lv/#stop/3011,,
0079,,"Centrālā stacija",,56.94607,24.11870,https://saraksti.lv/#stop/0079,,
0078,,"Centrāltirgus",,56.94572,24.11878,https://saraksti.lv/#stop/0078,,
0113,,"Emīlijas Benjamiņas iela",,56.94196,24.12790,https://saraksti.lv/#stop/0113,,
0149,,"Emīlijas Benjamiņas iela",,56.94210,24.12950,https://saraksti.lv/#stop/0149,,
2118,,"Centrāltirgus",,56.94476,24.12039,https://saraksti.lv/#stop/2118,,
0275,,"Mazā Kalna iela",,56.94232,24.14533,https://saraksti.lv/#stop/0275,,
8026,,"Atpūtas centrs ""Lido""",,56.92708,24.15909,https://saraksti.lv/#stop/8026,,
0162,,"Atpūtas centrs ""Lido""",,56.92439,24.16254,https://saraksti.lv/#stop/0162,,
5002,,"Balvu iela",,56.93412,24.14278,https://saraksti.lv/#stop/5002,,
8028,,"Balvu iela",,56.93282,24.14481,https://saraksti.lv/#stop/8028,,
5397,,"Grēdu iela",,56.93106,24.15181,https://saraksti.lv/#stop/5397,,
1102,,"Lastādijas iela",,56.94052,24.12997,https://saraksti.lv/#stop/1102,,
3162,,"Elijas iela",,56.93988,24.12574,https://saraksti.lv/#stop/3162,,
3170,,"Elijas iela",,56.93987,24.12627,https://saraksti.lv/#stop/3170,,
3163,,"Jēzusbaznīcas iela",,56.94104,24.12080,https://saraksti.lv/#stop/3163,,
3168,,"Jēzusbaznīcas iela",,56.94052,24.12185,https://saraksti.lv/#stop/3168,,
3164,,"Spīķeri",,56.94234,24.11619,https://saraksti.lv/#stop/3164,,
3167,,"Spīķeri",,56.94217,24.11693,https://saraksti.lv/#stop/3167,,
3156,,"Atpūtas centrs ""Lido""",,56.92947,24.16370,https://saraksti.lv/#stop/3156,,
3176,,"Atpūtas centrs ""Lido""",,56.92911,24.16396,https://saraksti.lv/#stop/3176,,
3160,,"Daugavpils iela",,56.93898,24.14004,https://saraksti.lv/#stop/3160,,
3172,,"Daugavpils iela",,56.93872,24.14063,https://saraksti.lv/#stop/3172,,
3161,,"Katoļu iela",,56.93958,24.13549,https://saraksti.lv/#stop/3161,,
3171,,"Katoļu iela",,56.93957,24.13629,https://saraksti.lv/#stop/3171,,
3155,,"Krasta masīvs",,56.92556,24.16815,https://saraksti.lv/#stop/3155,,
3177,,"Krasta masīvs",,56.92520,24.16838,https://saraksti.lv/#stop/3177,,
3158,,"Latgales parks",,56.93599,24.15587,https://saraksti.lv/#stop/3158,,
3174,,"Latgales parks",,56.93663,24.15461,https://saraksti.lv/#stop/3174,,
3159,,"Mazā Kalna iela",,56.93790,24.14638,https://saraksti.lv/#stop/3159,,
3173,,"Mazā Kalna iela",,56.93785,24.14727,https://saraksti.lv/#stop/3173,,
3157,,"Rēznas iela",,56.93341,24.15995,https://saraksti.lv/#stop/3157,,
3175,,"Rēznas iela",,56.93303,24.16023,https://saraksti.lv/#stop/3175,,
0036,,"Lauvas iela",,56.93915,24.15537,https://saraksti.lv/#stop/0036,,
0498,,"Vagonu parks",,56.94230,24.15512,https://saraksti.lv/#stop/0498,,
0099,,"Daugavpils iela",,56.94171,24.13979,https://saraksti.lv/#stop/0099,,
0250,,"Rītupes iela",,56.93293,24.16700,https://saraksti.lv/#stop/0250,,
0366,,"Katoļu iela",,56.94058,24.13664,https://saraksti.lv/#stop/0366,,
0276,,"Mazā Kalna iela",,56.94078,24.14817,https://saraksti.lv/#stop/0276,,
0511,,"Viļānu iela",,56.94094,24.15344,https://saraksti.lv/#stop/0511,,
3165,,"Autoosta",,56.94439,24.11512,https://saraksti.lv/#stop/3165,,
0412,,"Rītupes iela",,56.93227,24.16893,https://saraksti.lv/#stop/0412,,
0432,,"Slāvu iela",,56.92866,24.17284,https://saraksti.lv/#stop/0432,,
0431,,"Slāvu iela",,56.92962,24.17206,https://saraksti.lv/#stop/0431,,
0035,,"Lauvas iela",,56.93810,24.15677,https://saraksti.lv/#stop/0035,,
0381,,"Rēznas iela",,56.93463,24.16147,https://saraksti.lv/#stop/0381,,
0382,,"Rēznas iela",,56.93559,24.16022,https://saraksti.lv/#stop/0382,,
7749g,,"Abrenes iela",,56.94599,24.12864,https://saraksti.lv/#stop/7749g,,
0281,,"Viļānu iela",,56.94271,24.15169,https://saraksti.lv/#stop/0281,,
0032,,"Bākas iela",,57.05224,24.06924,https://saraksti.lv/#stop/0032,,
0031,,"Bākas iela",,57.05202,24.06830,https://saraksti.lv/#stop/0031,,
0324,,"Paegles",,57.06144,24.08000,https://saraksti.lv/#stop/0324,,
0323,,"Paegles",,57.06159,24.07997,https://saraksti.lv/#stop/0323,,
7993,,"Stāvvadu iela",,57.07016,24.08866,https://saraksti.lv/#stop/7993,,
7994,,"Stāvvadu iela",,57.07026,24.08886,https://saraksti.lv/#stop/7994,,
0016,,"Aizvēja",,57.05356,24.06251,https://saraksti.lv/#stop/0016,,
0017,,"Aizvēja",,57.05276,24.06310,https://saraksti.lv/#stop/0017,,
0263,,"Mangaļsala",,57.06101,24.05520,https://saraksti.lv/#stop/0263,,
0311,,"Osta",,57.05577,24.06070,https://saraksti.lv/#stop/0311,,
0312,,"Osta",,57.05548,24.06069,https://saraksti.lv/#stop/0312,,
1606,,"Veiksmes iela",,57.05612,24.07261,https://saraksti.lv/#stop/1606,,
1607,,"Veiksmes iela",,57.05640,24.07280,https://saraksti.lv/#stop/1607,,
5204,,"Mārupes novada dome",,56.90515,24.05468,https://saraksti.lv/#stop/5204,,
5205,,"Mārupes novada dome",,56.90608,24.05642,https://saraksti.lv/#stop/5205,,
5361,,"Mārupītes gatve",,56.90043,24.04630,https://saraksti.lv/#stop/5361,,
5414,,"Mārupītes gatve",,56.90157,24.04943,https://saraksti.lv/#stop/5414,,
5217,,"Mežciems",,56.89278,24.01376,https://saraksti.lv/#stop/5217,,
5216,,"Mežciems",,56.89284,24.01453,https://saraksti.lv/#stop/5216,,
5315,,"Sēļi",,56.89772,24.03515,https://saraksti.lv/#stop/5315,,
5316,,"Sēļi",,56.89831,24.03807,https://saraksti.lv/#stop/5316,,
5438,,"Vizmas",,56.89077,24.00673,https://saraksti.lv/#stop/5438,,
5440,,"Zaigas",,56.89404,24.01939,https://saraksti.lv/#stop/5440,,
5441,,"Zaigas",,56.89437,24.02165,https://saraksti.lv/#stop/5441,,
5189,,"Lamberti",,56.91755,24.02548,https://saraksti.lv/#stop/5189,,
5188,,"Lamberti",,56.91760,24.02736,https://saraksti.lv/#stop/5188,,
5376,,"Mārupes ģimnāzija",,56.91824,24.03607,https://saraksti.lv/#stop/5376,,
5375,,"Mārupes ģimnāzija",,56.91825,24.03732,https://saraksti.lv/#stop/5375,,
1391,,"Bērnudārzs ""Lienīte""",,56.89997,24.04702,https://saraksti.lv/#stop/1391,,
1393,,"Bērnudārzs ""Lienīte""",,56.89831,24.04633,https://saraksti.lv/#stop/1393,,
1392,,"Mārupe",,56.89567,24.04605,https://saraksti.lv/#stop/1392,,
5428,,"Jaunmārupes pamatskola",,56.87898,23.94671,https://saraksti.lv/#stop/5428,,
5429,,"Jaunmārupes pamatskola",,56.88007,23.94605,https://saraksti.lv/#stop/5429,,
4999,,"Mūzikas un mākslas skola",,56.88218,23.93454,https://saraksti.lv/#stop/4999,,
5512,,"Pļavu iela",,56.88264,23.94025,https://saraksti.lv/#stop/5512,,
5511,,"Pļavu iela",,56.88230,23.94155,https://saraksti.lv/#stop/5511,,
5513,,"Siltumnīcu komplekss",,56.88074,23.93111,https://saraksti.lv/#stop/5513,,
5515,,"Pīlādžu iela",,56.87677,23.92948,https://saraksti.lv/#stop/5515,,
5514,,"Ziedkalnu iela",,56.87811,23.92513,https://saraksti.lv/#stop/5514,,
5177,,"Ķienes",,56.87895,23.95803,https://saraksti.lv/#stop/5177,,
5176,,"Ķienes",,56.87908,23.95906,https://saraksti.lv/#stop/5176,,
5311,,"Puķulejas",,56.88636,23.98771,https://saraksti.lv/#stop/5311,,
5310,,"Puķulejas",,56.88731,23.99217,https://saraksti.lv/#stop/5310,,
5330,,"Riekstiņi",,56.88086,23.96469,https://saraksti.lv/#stop/5330,,
5329,,"Riekstiņi",,56.88190,23.96945,https://saraksti.lv/#stop/5329,,
4848,,"Vētras",,56.88328,23.97465,https://saraksti.lv/#stop/4848,,
8083,,"Vētras",,56.88419,23.97921,https://saraksti.lv/#stop/8083,,
5439,,"Vizmas",,56.88981,24.00222,https://saraksti.lv/#stop/5439,,
1540,,"Priežkalni",,56.92306,23.99648,https://saraksti.lv/#stop/1540,,
1543,,"Priežkalni",,56.92306,23.99722,https://saraksti.lv/#stop/1543,,
1541,,"Rīgas lidosta",,56.92154,23.97973,https://saraksti.lv/#stop/1541,,
1539,,"Rūdas",,56.92673,24.00215,https://saraksti.lv/#stop/1539,,
1544,,"Rūdas",,56.92678,24.00283,https://saraksti.lv/#stop/1544,,
5076,,"Čiekuri",,56.89197,23.98662,https://saraksti.lv/#stop/5076,,
5075,,"Čiekuri",,56.89226,23.98646,https://saraksti.lv/#stop/5075,,
4996,,"Milži",,56.90446,23.99476,https://saraksti.lv/#stop/4996,,
8064,,"Milži",,56.90470,23.99530,https://saraksti.lv/#stop/8064,,
5236,,"Noras",,56.91015,24.00243,https://saraksti.lv/#stop/5236,,
5235,,"Noras",,56.91101,24.00376,https://saraksti.lv/#stop/5235,,
5389,,"Stīpnieki",,56.91495,24.00910,https://saraksti.lv/#stop/5389,,
5390,,"Stīpnieki",,56.91641,24.01158,https://saraksti.lv/#stop/5390,,
5447,,"Zirnīši",,56.89792,23.98565,https://saraksti.lv/#stop/5447,,
5448,,"Zirnīši",,56.89818,23.98631,https://saraksti.lv/#stop/5448,,
1554,,"Latvijas Pasts",,56.92767,23.98697,https://saraksti.lv/#stop/1554,,
5518b,,"Kalngales",,56.87607,23.95193,https://saraksti.lv/#stop/5518b,,
1395,,"Mārupe",,56.89518,24.04591,https://saraksti.lv/#stop/1395,,
5516b,,"Bērzu iela",,56.87651,23.93490,https://saraksti.lv/#stop/5516b,,
1125,,"Rīgas lidosta",,56.92186,23.98040,https://saraksti.lv/#stop/1125,,
5312,,"Puķulejas",,56.88747,23.98974,https://saraksti.lv/#stop/5312,,
1396,,"Bērnudārzs ""Zeltrīti""",,56.89005,24.04958,https://saraksti.lv/#stop/1396,,
1397,,"Bērnudārzs ""Zeltrīti""",,56.88987,24.05070,https://saraksti.lv/#stop/1397,,
1558,,"Tīraine",,56.88845,24.06243,https://saraksti.lv/#stop/1558,,
1398,,"Veczariņu iela",,56.88950,24.05766,https://saraksti.lv/#stop/1398,,
1394,,"Veczariņu iela",,56.88968,24.05636,https://saraksti.lv/#stop/1394,,
1555,,"Miglas iela",,56.92599,23.99243,https://saraksti.lv/#stop/1555,,
0211,,"Ķīšezera iela",,56.99533,24.17228,https://saraksti.lv/#stop/0211,,
0210,,"Ķīšezera iela",,56.99461,24.17310,https://saraksti.lv/#stop/0210,,
0290,,"Meža prospekts",,57.00646,24.16541,https://saraksti.lv/#stop/0290,,
0422,,"Saules dārzs",,57.00168,24.17047,https://saraksti.lv/#stop/0422,,
0421,,"Saules dārzs",,57.00167,24.16992,https://saraksti.lv/#stop/0421,,
0485,,"Sporta bāze",,57.00419,24.16809,https://saraksti.lv/#stop/0485,,
0484,,"Sporta bāze",,57.00360,24.16865,https://saraksti.lv/#stop/0484,,
0458,,"Sudrabu Edžus iela",,56.99821,24.17099,https://saraksti.lv/#stop/0458,,
0457,,"Sudrabu Edžus iela",,56.99895,24.17039,https://saraksti.lv/#stop/0457,,
3214,,"Hamburgas iela",,56.99743,24.16141,https://saraksti.lv/#stop/3214,,
3238,,"Hamburgas iela",,56.99768,24.16127,https://saraksti.lv/#stop/3238,,
3240,,"Mežaparks / ZOO",,57.00469,24.15705,https://saraksti.lv/#stop/3240,,
3215,,"Mirdzas Ķempes iela",,56.99370,24.16366,https://saraksti.lv/#stop/3215,,
3237,,"Mirdzas Ķempes iela",,56.99352,24.16375,https://saraksti.lv/#stop/3237,,
3213,,"Visbijas prospekts",,57.00055,24.15951,https://saraksti.lv/#stop/3213,,
3239,,"Visbijas prospekts",,57.00027,24.15974,https://saraksti.lv/#stop/3239,,
0209,,"Ķīšezera iela",,56.99521,24.17175,https://saraksti.lv/#stop/0209,,
0048,,"Bergenas iela",,57.00226,24.15182,https://saraksti.lv/#stop/0048,,
0049,,"Bergenas iela",,57.00243,24.15220,https://saraksti.lv/#stop/0049,,
0132,,"Ezermalas iela",,57.00685,24.16420,https://saraksti.lv/#stop/0132,,
3211,,"Ezermalas iela",,57.00678,24.16236,https://saraksti.lv/#stop/3211,,
0164,,"Inčukalna iela",,56.99706,24.14149,https://saraksti.lv/#stop/0164,,
0291a,,"Mežaparks",,57.00435,24.15482,https://saraksti.lv/#stop/0291a,,
0292,,"Mežaparks / ZOO",,57.00437,24.15543,https://saraksti.lv/#stop/0292,,
0291,,"Mežaparks / ZOO",,57.00487,24.15652,https://saraksti.lv/#stop/0291,,
3212,,"Mežaparks / ZOO",,57.00556,24.15748,https://saraksti.lv/#stop/3212,,
0448,,"Stendera iela",,56.99927,24.14646,https://saraksti.lv/#stop/0448,,
0449,,"Stendera iela",,56.99881,24.14571,https://saraksti.lv/#stop/0449,,
1529,,"Bērnu slimnīca ""Gaiļezers""",,56.95631,24.25438,https://saraksti.lv/#stop/1529,,
0188,,"Biķernieku memoriāls",,56.96504,24.20954,https://saraksti.lv/#stop/0188,,
0187,,"Biķernieku memoriāls",,56.96566,24.20741,https://saraksti.lv/#stop/0187,,
0379a,,"Ratnieki",,56.95803,24.23653,https://saraksti.lv/#stop/0379a,,
0407,,"S.Eizenšteina iela",,56.95910,24.23236,https://saraksti.lv/#stop/0407,,
0527,,"Slimnīca ""Gaiļezers""",,56.96802,24.23979,https://saraksti.lv/#stop/0527,,
0054,,"Biķernieku iela",,56.95891,24.23818,https://saraksti.lv/#stop/0054,,
0151,,"Hipokrāta iela",,56.95979,24.23837,https://saraksti.lv/#stop/0151,,
0542,,"Mežciema pamatskola",,56.96243,24.23852,https://saraksti.lv/#stop/0542,,
0543,,"Mežciema pamatskola",,56.96334,24.23874,https://saraksti.lv/#stop/0543,,
8030,,"Mežciems",,56.97074,24.24280,https://saraksti.lv/#stop/8030,,
0528,,"Slimnīca ""Gaiļezers""",,56.96683,24.24017,https://saraksti.lv/#stop/0528,,
7988,,"Slimnīca ""Gaiļezers""",,56.96836,24.24142,https://saraksti.lv/#stop/7988,,
0052,,"Bērnu slimnīca ""Gaiļezers""",,56.95877,24.25277,https://saraksti.lv/#stop/0052,,
0053,,"Bērnu slimnīca ""Gaiļezers""",,56.95977,24.25302,https://saraksti.lv/#stop/0053,,
1702,,"80.vidusskola",,56.95924,24.20304,https://saraksti.lv/#stop/1702,,
0070,,"Celmu iela",,56.97479,24.23299,https://saraksti.lv/#stop/0070,,
0071,,"Celmu iela",,56.97479,24.23256,https://saraksti.lv/#stop/0071,,
0260,,"Dambjapurva iela",,56.97385,24.24022,https://saraksti.lv/#stop/0260,,
0343,,"Sociālās aprūpes centrs ""Mežciems""",,56.97504,24.22674,https://saraksti.lv/#stop/0343,,
0341,,"Sociālās aprūpes centrs ""Mežciems""",,56.97505,24.22615,https://saraksti.lv/#stop/0341,,
1154,,"Dambjapurva iela",,56.97302,24.23941,https://saraksti.lv/#stop/1154,,
7982,,"Līduma iela",,56.97219,24.23434,https://saraksti.lv/#stop/7982,,
1156,,"Līduma iela",,56.97205,24.23318,https://saraksti.lv/#stop/1156,,
1158,,"Biķernieku iela",,56.96093,24.23116,https://saraksti.lv/#stop/1158,,
0298,,"Motormuzejs",,56.97034,24.23003,https://saraksti.lv/#stop/0298,,
0297,,"Motormuzejs",,56.97025,24.22997,https://saraksti.lv/#stop/0297,,
0408,,"S.Eizenšteina iela",,56.96146,24.23215,https://saraksti.lv/#stop/0408,,
0439,,"Sporta bāze ""Biķernieki""",,56.96611,24.23348,https://saraksti.lv/#stop/0439,,
1157,,"Sporta bāze ""Biķernieki""",,56.96499,24.23380,https://saraksti.lv/#stop/1157,,
0286,,"Dambjapurva iela",,56.97257,24.24123,https://saraksti.lv/#stop/0286,,
8030a,,"Mežciems",,56.96984,24.24286,https://saraksti.lv/#stop/8030a,,
3080,,"Mīlgrāvis",,57.01711,24.12302,https://saraksti.lv/#stop/3080,,
0475,,"Mīlgrāvja tilts",,57.03192,24.13409,https://saraksti.lv/#stop/0475,,
0474,,"Mīlgrāvja tilts",,57.03101,24.13559,https://saraksti.lv/#stop/0474,,
0238,,"Lēdurgas iela",,57.01799,24.13049,https://saraksti.lv/#stop/0238,,
0314,,"Ostas iela",,57.02182,24.13475,https://saraksti.lv/#stop/0314,,
0313,,"Ostas iela",,57.02171,24.13412,https://saraksti.lv/#stop/0313,,
0239,,"Lēdurgas iela",,57.01913,24.13209,https://saraksti.lv/#stop/0239,,
8067,,"Mucenieki",,56.95887,24.37973,https://saraksti.lv/#stop/8067,,
5132,,"Gaviezes iela",,56.94870,23.98874,https://saraksti.lv/#stop/5132,,
5131,,"Gaviezes iela",,56.94782,23.99001,https://saraksti.lv/#stop/5131,,
5218,,"Mežmalas iela",,56.94359,23.99660,https://saraksti.lv/#stop/5218,,
5219,,"Mežmalas iela",,56.94376,23.99573,https://saraksti.lv/#stop/5219,,
5590,,"Gramzdas iela",,56.94030,23.99980,https://saraksti.lv/#stop/5590,,
5591,,"Gramzdas iela",,56.93984,23.99910,https://saraksti.lv/#stop/5591,,
3065,,"Eksportosta",,56.96826,24.09791,https://saraksti.lv/#stop/3065,,
3096,,"Vašingtona laukums",,56.96259,24.09830,https://saraksti.lv/#stop/3096,,
0252,,"Lugažu iela",,56.97479,24.11199,https://saraksti.lv/#stop/0252,,
0253,,"Lugažu iela",,56.97385,24.11100,https://saraksti.lv/#stop/0253,,
3068,,"Lugažu iela",,56.97466,24.11203,https://saraksti.lv/#stop/3068,,
3092,,"Lugažu iela",,56.97446,24.11184,https://saraksti.lv/#stop/3092,,
0346,,"Pētersala",,56.96866,24.10696,https://saraksti.lv/#stop/0346,,
0347,,"Pētersala",,56.96901,24.10708,https://saraksti.lv/#stop/0347,,
3095,,"Eksportosta",,56.96853,24.09827,https://saraksti.lv/#stop/3095,,
3066,,"Katrīnas iela",,56.96819,24.10072,https://saraksti.lv/#stop/3066,,
3094,,"Katrīnas iela",,56.96809,24.10150,https://saraksti.lv/#stop/3094,,
3067,,"Pētersala",,56.96771,24.10535,https://saraksti.lv/#stop/3067,,
3093,,"Pētersala",,56.96782,24.10589,https://saraksti.lv/#stop/3093,,
5472,,"Pētersala",,56.96764,24.10632,https://saraksti.lv/#stop/5472,,
2013,,"Pētersala",,56.96764,24.10648,https://saraksti.lv/#stop/2013,,
3251,,"Kultūru vidusskola",,56.97061,24.10872,https://saraksti.lv/#stop/3251,,
3252,,"Kultūru vidusskola",,56.97037,24.10849,https://saraksti.lv/#stop/3252,,
4131,,"Pagrieziens uz Piņķiem",,56.94603,23.92306,https://saraksti.lv/#stop/4131,,
5272,,"Jaunā iela",,56.95173,23.91329,https://saraksti.lv/#stop/5272,,
5273,,"Pagrieziens uz Piņķiem",,56.94580,23.91993,https://saraksti.lv/#stop/5273,,
4977,,"Piņķi",,56.94428,23.91045,https://saraksti.lv/#stop/4977,,
8073,,"Piņķi",,56.94433,23.91042,https://saraksti.lv/#stop/8073,,
8071,,"Meistaru iela",,56.94293,23.90414,https://saraksti.lv/#stop/8071,,
1537,,"Apuzes iela",,56.93373,24.03027,https://saraksti.lv/#stop/1537,,
1427,,"Jūrkalnes iela",,56.93948,24.02227,https://saraksti.lv/#stop/1427,,
1428,,"Jūrkalnes iela",,56.93929,24.02242,https://saraksti.lv/#stop/1428,,
1429,,"Šampētera iela",,56.93788,24.02483,https://saraksti.lv/#stop/1429,,
1430,,"Šampētera iela",,56.93736,24.02542,https://saraksti.lv/#stop/1430,,
1423,,"Apuzes iela",,56.93350,24.03176,https://saraksti.lv/#stop/1423,,
1413,,"Ventspils iela",,56.93565,24.03877,https://saraksti.lv/#stop/1413,,
1424,,"Ventspils iela",,56.93523,24.03735,https://saraksti.lv/#stop/1424,,
1407,,"Ozolnieku iela",,56.93000,24.05838,https://saraksti.lv/#stop/1407,,
1408,,"Ozolnieku iela",,56.93085,24.05715,https://saraksti.lv/#stop/1408,,
1546,,"Kauguru iela",,56.93618,24.04649,https://saraksti.lv/#stop/1546,,
1545a,,"Lielirbes iela",,56.93148,24.03661,https://saraksti.lv/#stop/1545a,,
8021,,"Lielirbes iela",,56.93079,24.03431,https://saraksti.lv/#stop/8021,,
1426,,"Rucavas iela",,56.93912,24.03131,https://saraksti.lv/#stop/1426,,
1425,,"Rucavas iela",,56.93929,24.03054,https://saraksti.lv/#stop/1425,,
1409,,"Astras iela",,56.93162,24.05150,https://saraksti.lv/#stop/1409,,
1410,,"Astras iela",,56.93162,24.05095,https://saraksti.lv/#stop/1410,,
1411,,"Jaunmoku iela",,56.93415,24.04481,https://saraksti.lv/#stop/1411,,
1412,,"Jaunmoku iela",,56.93364,24.04570,https://saraksti.lv/#stop/1412,,
1418,,"Apuzes iela",,56.93388,24.02851,https://saraksti.lv/#stop/1418,,
1419,,"Pleskodāles iela",,56.93189,24.02486,https://saraksti.lv/#stop/1419,,
1417,,"Rucavas iela",,56.93628,24.03545,https://saraksti.lv/#stop/1417,,
1420,,"Zolitūdes iela",,56.92961,24.02001,https://saraksti.lv/#stop/1420,,
8020,,"Remtes iela",,56.92828,24.03030,https://saraksti.lv/#stop/8020,,
8019,,"Remtes iela",,56.92816,24.03064,https://saraksti.lv/#stop/8019,,
5342,,"A.Saharova iela",,56.94603,24.20855,https://saraksti.lv/#stop/5342,,
5035a,,"Baltinavas iela",,56.94320,24.23254,https://saraksti.lv/#stop/5035a,,
5140,,"Ilūkstes iela",,56.94743,24.19842,https://saraksti.lv/#stop/5140,,
9095,,"Kaivas iela",,56.94399,24.24039,https://saraksti.lv/#stop/9095,,
5197,,"Liepiņas",,56.94422,24.22229,https://saraksti.lv/#stop/5197,,
9101,,"Ulbrokas iela 13",,56.94541,24.21344,https://saraksti.lv/#stop/9101,,
5456,,"A.Deglava iela",,56.94483,24.20657,https://saraksti.lv/#stop/5456,,
5470,,"A.Saharova iela",,56.94396,24.20571,https://saraksti.lv/#stop/5470,,
5455,,"Brāļu Kaudzīšu iela",,56.94170,24.20522,https://saraksti.lv/#stop/5455,,
5471,,"Brāļu Kaudzīšu iela",,56.94074,24.20434,https://saraksti.lv/#stop/5471,,
0493,,"Pavasara gatve",,56.93406,24.20199,https://saraksti.lv/#stop/0493,,
0492,,"Pavasara gatve",,56.93297,24.20106,https://saraksti.lv/#stop/0492,,
0394,,"Rudens iela",,56.93786,24.20314,https://saraksti.lv/#stop/0394,,
0393,,"Rudens iela",,56.93727,24.20334,https://saraksti.lv/#stop/0393,,
0196,,"Brāļu Kaudzīšu iela",,56.94045,24.19660,https://saraksti.lv/#stop/0196,,
0005,,"Dzeņu iela",,56.93912,24.20657,https://saraksti.lv/#stop/0005,,
0004,,"Dzeņu iela",,56.93943,24.20665,https://saraksti.lv/#stop/0004,,
0476,,"Sesku iela",,56.94518,24.19585,https://saraksti.lv/#stop/0476,,
0157,,"Zemes iela",,56.94246,24.19548,https://saraksti.lv/#stop/0157,,
0043,,"Jukuma Vācieša iela",,56.93158,24.20996,https://saraksti.lv/#stop/0043,,
0360,,"Katlakalna iela",,56.93203,24.19866,https://saraksti.lv/#stop/0360,,
0288,,"Rembates iela",,56.93896,24.23030,https://saraksti.lv/#stop/0288,,
0357,,"Žīguru iela",,56.93693,24.22440,https://saraksti.lv/#stop/0357,,
0413,,"Salnas iela",,56.94431,24.21736,https://saraksti.lv/#stop/0413,,
0414,,"Salnas iela",,56.94324,24.21675,https://saraksti.lv/#stop/0414,,
0488,,"Ulbrokas iela",,56.93893,24.21521,https://saraksti.lv/#stop/0488,,
0487,,"Ulbrokas iela",,56.93867,24.21490,https://saraksti.lv/#stop/0487,,
4132,,"Pagrieziens uz Piņķiem",,56.94404,23.92294,https://saraksti.lv/#stop/4132,,
5279,,"Priežciems",,56.95071,23.93612,https://saraksti.lv/#stop/5279,,
0090,,"Dārzciema iela",,56.94944,24.18412,https://saraksti.lv/#stop/0090,,
5141,,"Ilūkstes iela",,56.94810,24.19430,https://saraksti.lv/#stop/5141,,
0308,,"Itas Kozakevičas iela",,56.95101,24.17224,https://saraksti.lv/#stop/0308,,
7991,,"Viršu iela",,56.95041,24.17666,https://saraksti.lv/#stop/7991,,
0445,,"Gustava Zemgala gatve",,56.96253,24.17099,https://saraksti.lv/#stop/0445,,
0161,,"Ilūkstes iela",,56.95550,24.19729,https://saraksti.lv/#stop/0161,,
0156,,"Ilūkstes iela",,56.95563,24.19842,https://saraksti.lv/#stop/0156,,
0280,,"Mēbeļu nams",,56.95636,24.19119,https://saraksti.lv/#stop/0280,,
0279,,"Mēbeļu nams",,56.95668,24.19113,https://saraksti.lv/#stop/0279,,
0306,,"Nīcgales iela",,56.95969,24.17672,https://saraksti.lv/#stop/0306,,
0371,,"Purvciems",,56.95433,24.20553,https://saraksti.lv/#stop/0371,,
0372,,"Purvciems",,56.95478,24.20480,https://saraksti.lv/#stop/0372,,
0309,,"Stirnu iela",,56.95899,24.18050,https://saraksti.lv/#stop/0309,,
0450,,"Stirnu iela",,56.95860,24.18086,https://saraksti.lv/#stop/0450,,
0242,,"Lielvārdes iela",,56.96149,24.19829,https://saraksti.lv/#stop/0242,,
0243,,"Lielvārdes iela",,56.96139,24.19753,https://saraksti.lv/#stop/0243,,
0107,,"Varavīksnes gatve",,56.95384,24.19930,https://saraksti.lv/#stop/0107,,
0159,,"Varavīksnes gatve",,56.95340,24.19895,https://saraksti.lv/#stop/0159,,
0441,,"Zemitānu stacija",,56.96469,24.16670,https://saraksti.lv/#stop/0441,,
1701,,"80.vidusskola",,56.95858,24.20383,https://saraksti.lv/#stop/1701,,
0110,,"Stacionārs ""Biķernieki""",,56.96515,24.19910,https://saraksti.lv/#stop/0110,,
2059,,"Dzelzavas iela",,56.95825,24.17694,https://saraksti.lv/#stop/2059,,
2062,,"Dzelzavas iela",,56.95900,24.17742,https://saraksti.lv/#stop/2062,,
2060,,"Purvciema iela",,56.95477,24.17535,https://saraksti.lv/#stop/2060,,
2061,,"Purvciema iela",,56.95558,24.17591,https://saraksti.lv/#stop/2061,,
7998,,"Stigu iela",,56.95378,24.21674,https://saraksti.lv/#stop/7998,,
2058,,"64.vidusskola",,56.95901,24.18499,https://saraksti.lv/#stop/2058,,
2065,,"64.vidusskola",,56.96023,24.18720,https://saraksti.lv/#stop/2065,,
2057,,"Ainavas iela",,56.96184,24.19071,https://saraksti.lv/#stop/2057,,
2066,,"Ainavas iela",,56.96240,24.19213,https://saraksti.lv/#stop/2066,,
2080,,"Ieriķu iela",,56.96507,24.19535,https://saraksti.lv/#stop/2080,,
2125,,"Ieriķu iela",,56.96463,24.19485,https://saraksti.lv/#stop/2125,,
0491,,"Ūnijas iela",,56.96430,24.17686,https://saraksti.lv/#stop/0491,,
0499,,"Vaidavas iela",,56.96208,24.17614,https://saraksti.lv/#stop/0499,,
2126,,"Vaidavas iela",,56.96165,24.17604,https://saraksti.lv/#stop/2126,,
7066,,"Stigu iela 10",,56.95678,24.22215,https://saraksti.lv/#stop/7066,,
7067,,"Stigu iela 10",,56.95626,24.22107,https://saraksti.lv/#stop/7067,,
4175,,"Ūnijas iela",,56.96526,24.17701,https://saraksti.lv/#stop/4175,,
6445,,"Kāpu iela",,56.88165,24.15975,https://saraksti.lv/#stop/6445,,
1297,,"Kāpu iela",,56.88263,24.15872,https://saraksti.lv/#stop/1297,,
1300,,"Ādiņas",,56.87967,24.17285,https://saraksti.lv/#stop/1300,,
1301,,"Ādiņas",,56.87981,24.17350,https://saraksti.lv/#stop/1301,,
1298,,"Vidēji",,56.87969,24.16750,https://saraksti.lv/#stop/1298,,
1299,,"Vidēji",,56.87972,24.16765,https://saraksti.lv/#stop/1299,,
5324,,"Rāmava",,56.89046,24.14879,https://saraksti.lv/#stop/5324,,
4003,,"Loģistikas centrs",,56.88973,24.14808,https://saraksti.lv/#stop/4003,,
1296a,,"Pagrieziens uz Baložiem",,56.88534,24.15298,https://saraksti.lv/#stop/1296a,,
8090,,"Pagrieziens uz Rāmavu",,56.88614,24.15522,https://saraksti.lv/#stop/8090,,
8091,,"Pagrieziens uz Rāmavu",,56.88641,24.15499,https://saraksti.lv/#stop/8091,,
5323a,,"Rāmava",,56.89022,24.14862,https://saraksti.lv/#stop/5323a,,
0018,,"Apskates stacija",,56.88865,24.22999,https://saraksti.lv/#stop/0018,,
0019,,"Apskates stacija",,56.88846,24.23107,https://saraksti.lv/#stop/0019,,
0223,,"Krustpils iela",,56.89211,24.22177,https://saraksti.lv/#stop/0223,,
0224,,"Krustpils iela",,56.89301,24.22023,https://saraksti.lv/#stop/0224,,
0001,,"Latgales iela 450",,56.88659,24.23493,https://saraksti.lv/#stop/0001,,
0002,,"Latgales iela 450",,56.88684,24.23493,https://saraksti.lv/#stop/0002,,
0397,,"Rumbula",,56.88286,24.24487,https://saraksti.lv/#stop/0397,,
0396,,"Rumbula",,56.88161,24.24677,https://saraksti.lv/#stop/0396,,
1254,,"Lucavsala",,56.92935,24.11422,https://saraksti.lv/#stop/1254,,
1333,,"Lucavsala",,56.92919,24.11457,https://saraksti.lv/#stop/1333,,
1253,,"Zaķusala",,56.93257,24.11941,https://saraksti.lv/#stop/1253,,
1334,,"Zaķusala",,56.93258,24.12003,https://saraksti.lv/#stop/1334,,
2124,,"Televīzijas centrs",,56.93483,24.11766,https://saraksti.lv/#stop/2124,,
0139,,"Ganību dambis",,56.98841,24.12306,https://saraksti.lv/#stop/0139,,
0140,,"Ganību dambis",,56.98851,24.12278,https://saraksti.lv/#stop/0140,,
3086,,"Duntes iela",,56.99326,24.12306,https://saraksti.lv/#stop/3086,,
0318,,"Ozolaine/Jūras medicīnas centrs",,56.98733,24.13300,https://saraksti.lv/#stop/0318,,
0317,,"Ozolaine/Jūras medicīnas centrs",,56.98653,24.13385,https://saraksti.lv/#stop/0317,,
0486,,"Tilta iela",,56.99287,24.12413,https://saraksti.lv/#stop/0486,,
0106,,"Tilta iela",,56.99248,24.12495,https://saraksti.lv/#stop/0106,,
0482,,"Traumatoloģijas un ortopēdijas slimnīca",,56.98378,24.13604,https://saraksti.lv/#stop/0482,,
0483,,"Traumatoloģijas un ortopēdijas slimnīca",,56.98292,24.13627,https://saraksti.lv/#stop/0483,,
7992,,"Vītolu iela",,56.98891,24.13062,https://saraksti.lv/#stop/7992,,
2016,,"Vītolu iela",,56.99035,24.12953,https://saraksti.lv/#stop/2016,,
7985,,"1.trolejbusu parks",,56.98780,24.12156,https://saraksti.lv/#stop/7985,,
7986,,"1.trolejbusu parks",,56.98693,24.12113,https://saraksti.lv/#stop/7986,,
3072,,"1.trolejbusu parks",,56.98733,24.12159,https://saraksti.lv/#stop/3072,,
3088,,"1.trolejbusu parks",,56.98761,24.12163,https://saraksti.lv/#stop/3088,,
3069,,"Bukultu iela",,56.97712,24.11400,https://saraksti.lv/#stop/3069,,
3091,,"Bukultu iela",,56.97765,24.11440,https://saraksti.lv/#stop/3091,,
0134,,"Rāmuļu iela",,56.98386,24.11947,https://saraksti.lv/#stop/0134,,
0136,,"Rāmuļu iela",,56.98316,24.11860,https://saraksti.lv/#stop/0136,,
3071,,"Rāmuļu iela",,56.98339,24.11918,https://saraksti.lv/#stop/3071,,
3089,,"Rāmuļu iela",,56.98356,24.11924,https://saraksti.lv/#stop/3089,,
0374,,"Rankas iela",,56.98015,24.11637,https://saraksti.lv/#stop/0374,,
0375,,"Rankas iela",,56.97877,24.11502,https://saraksti.lv/#stop/0375,,
3070,,"Rankas iela",,56.97968,24.11612,https://saraksti.lv/#stop/3070,,
3090,,"Rankas iela",,56.97946,24.11591,https://saraksti.lv/#stop/3090,,
0387,,"Rūpnīca ""RER""",,56.99090,24.12200,https://saraksti.lv/#stop/0387,,
0388,,"Rūpnīca ""RER""",,56.99119,24.12231,https://saraksti.lv/#stop/0388,,
3073,,"Rūpnīca ""RER""",,56.99017,24.12219,https://saraksti.lv/#stop/3073,,
3087,,"Rūpnīca ""RER""",,56.99089,24.12210,https://saraksti.lv/#stop/3087,,
0025,,"Aptiekas iela",,56.99897,24.11674,https://saraksti.lv/#stop/0025,,
3077,,"Aldaris",,57.00220,24.12368,https://saraksti.lv/#stop/3077,,
3083,,"Aldaris",,57.00221,24.12368,https://saraksti.lv/#stop/3083,,
2130,,"Meža prospekts",,56.99604,24.13189,https://saraksti.lv/#stop/2130,,
0189,,"Sarkandaugavas kapi",,56.99691,24.13919,https://saraksti.lv/#stop/0189,,
3076,,"Allažu iela",,56.99845,24.12362,https://saraksti.lv/#stop/3076,,
3084,,"Allažu iela",,56.99815,24.12350,https://saraksti.lv/#stop/3084,,
3075,,"Sarkandaugava",,56.99543,24.12592,https://saraksti.lv/#stop/3075,,
3085,,"Sarkandaugava",,56.99510,24.12628,https://saraksti.lv/#stop/3085,,
3079,,"Daudersala",,57.01021,24.12509,https://saraksti.lv/#stop/3079,,
3081,,"Daudersala",,57.00952,24.12540,https://saraksti.lv/#stop/3081,,
3078,,"Gaujienas iela",,57.00624,24.12518,https://saraksti.lv/#stop/3078,,
3082,,"Gaujienas iela",,57.00634,24.12516,https://saraksti.lv/#stop/3082,,
3074,,"Duntes iela",,56.99344,24.12329,https://saraksti.lv/#stop/3074,,
0415,,"Sarkandaugava",,56.99419,24.12494,https://saraksti.lv/#stop/0415,,
0416,,"Sarkandaugava",,56.99487,24.12679,https://saraksti.lv/#stop/0416,,
0266,,"Aldaris",,57.00568,24.11999,https://saraksti.lv/#stop/0266,,
0024,,"Aptiekas iela",,56.99841,24.11713,https://saraksti.lv/#stop/0024,,
0023,,"Aptiekas iela",,56.99943,24.11796,https://saraksti.lv/#stop/0023,,
0384,,"Psihiskās veselības centrs",,56.99401,24.12076,https://saraksti.lv/#stop/0384,,
0383,,"Psihiskās veselības centrs",,56.99378,24.12071,https://saraksti.lv/#stop/0383,,
0217,,"Daudersalas pārvads",,57.01052,24.12890,https://saraksti.lv/#stop/0217,,
0216,,"Daudersalas pārvads",,57.00957,24.12932,https://saraksti.lv/#stop/0216,,
7996,,"Muzejs ""Dauderi""",,57.00337,24.12984,https://saraksti.lv/#stop/7996,,
0365,,"Muzejs ""Dauderi""",,57.00519,24.12891,https://saraksti.lv/#stop/0365,,
0051,,"Viestura prospekts",,57.00004,24.13192,https://saraksti.lv/#stop/0051,,
0050,,"Viestura prospekts",,56.99909,24.13215,https://saraksti.lv/#stop/0050,,
0420,,"Meža prospekts",,56.99611,24.13239,https://saraksti.lv/#stop/0420,,
0417a,,"Sarkandaugava",,56.99522,24.13215,https://saraksti.lv/#stop/0417a,,
0417b,,"Sarkandaugava - izkāpšana",,56.99576,24.13163,https://saraksti.lv/#stop/0417b,,
7972,,"Sarkandaugavas stacija",,56.99514,24.13143,https://saraksti.lv/#stop/7972,,
7970,,"Sarkandaugavas stacija - izkāpšana",,56.99507,24.13079,https://saraksti.lv/#stop/7970,,
7971,,"Sarkandaugavas stacija - izkāpšana",,56.99432,24.13182,https://saraksti.lv/#stop/7971,,
9109,,"Aldaris",,57.00470,24.11948,https://saraksti.lv/#stop/9109,,
0026,,"Daudersala",,57.00945,24.12489,https://saraksti.lv/#stop/0026,,
1614,,"Saulīši",,56.92446,24.26796,https://saraksti.lv/#stop/1614,,
1615,,"Cidoniju iela",,56.92609,24.25798,https://saraksti.lv/#stop/1615,,
1616,,"Cidoniju iela",,56.92545,24.25875,https://saraksti.lv/#stop/1616,,
1200,,"Ērgļu iela",,56.93412,24.24644,https://saraksti.lv/#stop/1200,,
1201,,"Ērgļu iela",,56.93409,24.24627,https://saraksti.lv/#stop/1201,,
1619,,"Ozolu iela",,56.93657,24.23926,https://saraksti.lv/#stop/1619,,
1620,,"Ozolu iela",,56.93627,24.24011,https://saraksti.lv/#stop/1620,,
1617,,"Strazdiņu iela",,56.92815,24.25491,https://saraksti.lv/#stop/1617,,
1618,,"Strazdiņu iela",,56.92866,24.25404,https://saraksti.lv/#stop/1618,,
5593,,"Noliktavu iela",,56.93275,24.23609,https://saraksti.lv/#stop/5593,,
1037,,"Arēna Rīga",,56.96948,24.11946,https://saraksti.lv/#stop/1037,,
1038,,"Arēna Rīga",,56.96947,24.11887,https://saraksti.lv/#stop/1038,,
1812,,"Sporta iela",,56.96480,24.11557,https://saraksti.lv/#stop/1812,,
1813,,"Sporta iela",,56.96466,24.11527,https://saraksti.lv/#stop/1813,,
5042,,"Brīvkalni",,56.92393,23.91408,https://saraksti.lv/#stop/5042,,
5041,,"Brīvkalni",,56.92820,23.91613,https://saraksti.lv/#stop/5041,,
5368,,"Silkalēji",,56.92017,23.94418,https://saraksti.lv/#stop/5368,,
5369,,"Silkalēji",,56.92031,23.94257,https://saraksti.lv/#stop/5369,,
5000,,"Skulte",,56.91937,23.95258,https://saraksti.lv/#stop/5000,,
8078,,"Skulte",,56.91932,23.95358,https://saraksti.lv/#stop/8078,,
1703,,"Skultes stadions",,56.91965,23.94951,https://saraksti.lv/#stop/1703,,
1704,,"Skultes stadions",,56.91993,23.94754,https://saraksti.lv/#stop/1704,,
8079,,"Pilotu skola",,56.91851,23.96212,https://saraksti.lv/#stop/8079,,
1133,,"Podraga iela",,56.97798,24.07999,https://saraksti.lv/#stop/1133,,
1134,,"Podraga iela",,56.97855,24.08096,https://saraksti.lv/#stop/1134,,
1132,,"Spilves lidlauks",,56.97494,24.07620,https://saraksti.lv/#stop/1132,,
1214,,"Dzirciema iela",,56.97797,24.05462,https://saraksti.lv/#stop/1214,,
1215,,"Nordeka",,56.97681,24.05505,https://saraksti.lv/#stop/1215,,
1517,,"Sunīši",,56.97193,24.37665,https://saraksti.lv/#stop/1517,,
1518,,"Mucenieku ceļš",,56.96953,24.37367,https://saraksti.lv/#stop/1518,,
1519,,"Mucenieku ceļš",,56.96959,24.37377,https://saraksti.lv/#stop/1519,,
0212,,"Klipiņas",,57.01292,24.23224,https://saraksti.lv/#stop/0212,,
0213,,"Klipiņas",,57.01283,24.23243,https://saraksti.lv/#stop/0213,,
0322,,"Ozolkalni",,57.01185,24.22056,https://saraksti.lv/#stop/0322,,
0321,,"Ozolkalni",,57.01176,24.22090,https://saraksti.lv/#stop/0321,,
0460,,"Suži",,57.01859,24.20795,https://saraksti.lv/#stop/0460,,
8004,,"Suži",,57.01883,24.20816,https://saraksti.lv/#stop/8004,,
0649,,"Jāņa Endzelīna iela",,56.94342,24.02853,https://saraksti.lv/#stop/0649,,
0650,,"Jāņa Endzelīna iela",,56.94300,24.02774,https://saraksti.lv/#stop/0650,,
0645,,"Zasulauka depo",,56.94510,24.03437,https://saraksti.lv/#stop/0645,,
0646,,"Zasulauka depo",,56.94509,24.03401,https://saraksti.lv/#stop/0646,,
5328,,"Kauguru iela",,56.93538,24.04401,https://saraksti.lv/#stop/5328,,
1415,,"Fridriha Candera iela",,56.93937,24.04523,https://saraksti.lv/#stop/1415,,
1416,,"Irlavas iela",,56.93777,24.04016,https://saraksti.lv/#stop/1416,,
0647,,"Zasulauka iela",,56.94249,24.04093,https://saraksti.lv/#stop/0647,,
0648,,"Zasulauka iela",,56.94267,24.04060,https://saraksti.lv/#stop/0648,,
7064,,"Šampēteris",,56.94072,24.03404,https://saraksti.lv/#stop/7064,,
7065,,"Šampēteris",,56.94058,24.03320,https://saraksti.lv/#stop/7065,,
7063,,"Zasulauka iela",,56.94243,24.04043,https://saraksti.lv/#stop/7063,,
1464,,"Granīta iela",,56.90859,24.21208,https://saraksti.lv/#stop/1464,,
1466,,"Granīta iela 13",,56.91271,24.22946,https://saraksti.lv/#stop/1466,,
1480,,"Granīta iela 13",,56.91279,24.22871,https://saraksti.lv/#stop/1480,,
1552,,"Granīta iela 5",,56.91250,24.22399,https://saraksti.lv/#stop/1552,,
1553,,"Granīta iela 5",,56.91259,24.22260,https://saraksti.lv/#stop/1553,,
1482,,"Krustpils iela",,56.90887,24.21221,https://saraksti.lv/#stop/1482,,
1465,,"Malēju iela",,56.91169,24.21712,https://saraksti.lv/#stop/1465,,
1481,,"Malēju iela",,56.91161,24.21666,https://saraksti.lv/#stop/1481,,
1479,,"Rožkalni",,56.91306,24.23599,https://saraksti.lv/#stop/1479,,
1504,,"Katlakalna iela",,56.93063,24.19845,https://saraksti.lv/#stop/1504,,
1602,,"Katlakalna iela",,56.93027,24.19908,https://saraksti.lv/#stop/1602,,
1488,,"Depo",,56.91177,24.20589,https://saraksti.lv/#stop/1488,,
1489,,"Depo",,56.91243,24.20486,https://saraksti.lv/#stop/1489,,
1484,,"Dzirkaļu iela",,56.91806,24.19679,https://saraksti.lv/#stop/1484,,
1505,,"Krustpils iela 53",,56.91978,24.19412,https://saraksti.lv/#stop/1505,,
1485,,"Krustpils iela 53",,56.92098,24.19324,https://saraksti.lv/#stop/1485,,
1506,,"Mazā Rencēnu iela",,56.92706,24.18679,https://saraksti.lv/#stop/1506,,
1507,,"Mazā Rencēnu iela",,56.92502,24.18799,https://saraksti.lv/#stop/1507,,
1483,,"Rājumsila iela",,56.91484,24.20096,https://saraksti.lv/#stop/1483,,
1487,,"Rājumsila iela",,56.91519,24.20029,https://saraksti.lv/#stop/1487,,
1604,,"Slāvu rotācijas aplis",,56.92931,24.18302,https://saraksti.lv/#stop/1604,,
1605,,"Slāvu rotācijas aplis",,56.92976,24.18313,https://saraksti.lv/#stop/1605,,
0158,,"Ilūkstes iela",,56.93197,24.19692,https://saraksti.lv/#stop/0158,,
0042,,"Jukuma Vācieša iela",,56.93163,24.21169,https://saraksti.lv/#stop/0042,,
0359,,"Katlakalna iela",,56.93173,24.20181,https://saraksti.lv/#stop/0359,,
7978,,"Pļavnieku kapi",,56.93494,24.22073,https://saraksti.lv/#stop/7978,,
0289,,"Rembates iela",,56.93923,24.23163,https://saraksti.lv/#stop/0289,,
0046,,"Slāvu rotācijas aplis",,56.93110,24.18439,https://saraksti.lv/#stop/0046,,
0358,,"Žīguru iela",,56.93696,24.22481,https://saraksti.lv/#stop/0358,,
0093,,"Cesvaines iela",,56.93011,24.21178,https://saraksti.lv/#stop/0093,,
0497,,"Rencēnu iela",,56.92275,24.21275,https://saraksti.lv/#stop/0497,,
0496,,"Rencēnu iela",,56.92304,24.21290,https://saraksti.lv/#stop/0496,,
0368,,"Preču - 2",,56.92250,24.21707,https://saraksti.lv/#stop/0368,,
1601,,"Malēju iela",,56.90736,24.22091,https://saraksti.lv/#stop/1601,,
1706,,"Sila iela",,56.90659,24.21545,https://saraksti.lv/#stop/1706,,
1603,,"Katlakalna iela",,56.92997,24.19791,https://saraksti.lv/#stop/1603,,
1621,,"Sila iela",,56.90635,24.21479,https://saraksti.lv/#stop/1621,,
1624,,"Sila iela",,56.90689,24.21396,https://saraksti.lv/#stop/1624,,
7978a,,"Pļavnieku kapi",,56.93466,24.22077,https://saraksti.lv/#stop/7978a,,
2094,,"Aizkraukles iela",,56.97558,24.18760,https://saraksti.lv/#stop/2094,,
2093,,"Linezers",,56.97710,24.19293,https://saraksti.lv/#stop/2093,,
2099,,"Teikas vidusskola",,56.97530,24.18336,https://saraksti.lv/#stop/2099,,
1531,,"Burtnieku iela",,56.96967,24.18460,https://saraksti.lv/#stop/1531,,
1511,,"Ķeguma iela/Stacionārs ""Biķernieki""",,56.96804,24.19391,https://saraksti.lv/#stop/1511,,
1530,,"Ķeguma iela/Stacionārs ""Biķernieki""",,56.96792,24.19503,https://saraksti.lv/#stop/1530,,
1510,,"Laimdotas iela",,56.96899,24.18829,https://saraksti.lv/#stop/1510,,
0456,,"Struktoru iela",,56.97145,24.17327,https://saraksti.lv/#stop/0456,,
0465,,"Tālivalža iela",,56.97075,24.17786,https://saraksti.lv/#stop/0465,,
1509,,"Tālivalža iela",,56.97039,24.17970,https://saraksti.lv/#stop/1509,,
0006,,"Alfa",,56.98381,24.20178,https://saraksti.lv/#stop/0006,,
0038,,"Bajāru iela",,56.97635,24.17693,https://saraksti.lv/#stop/0038,,
0039,,"Bajāru iela",,56.97605,24.17567,https://saraksti.lv/#stop/0039,,
0112,,"Dzērbenes iela",,56.98105,24.19237,https://saraksti.lv/#stop/0112,,
0111,,"Dzērbenes iela",,56.98078,24.19117,https://saraksti.lv/#stop/0111,,
0419,,"Gustava Zemgala gatve",,56.97371,24.16807,https://saraksti.lv/#stop/0419,,
0418,,"Gustava Zemgala gatve",,56.97382,24.16873,https://saraksti.lv/#stop/0418,,
0222,,"Krustabaznīcas iela",,56.98231,24.19657,https://saraksti.lv/#stop/0222,,
0221,,"Krustabaznīcas iela",,56.98191,24.19489,https://saraksti.lv/#stop/0221,,
2019,,"Palmu iela",,56.97774,24.18125,https://saraksti.lv/#stop/2019,,
2024,,"Palmu iela",,56.97790,24.18204,https://saraksti.lv/#stop/2024,,
3110,,"Sporta akadēmija",,56.98531,24.20763,https://saraksti.lv/#stop/3110,,
3142,,"Sporta akadēmija",,56.98545,24.20834,https://saraksti.lv/#stop/3142,,
2018a,,"Sporta akadēmija",,56.98510,24.20876,https://saraksti.lv/#stop/2018a,,
0455,,"Struktoru iela",,56.97524,24.17341,https://saraksti.lv/#stop/0455,,
2018,,"Šmerlis",,56.98484,24.20858,https://saraksti.lv/#stop/2018,,
0399,,"VEF",,56.97107,24.15931,https://saraksti.lv/#stop/0399,,
0400,,"VEF",,56.97188,24.16271,https://saraksti.lv/#stop/0400,,
3117,,"VEF",,56.97115,24.15993,https://saraksti.lv/#stop/3117,,
3135,,"VEF",,56.97148,24.16104,https://saraksti.lv/#stop/3135,,
0208,,"Zemitāna laukums",,56.97921,24.18637,https://saraksti.lv/#stop/0208,,
0207,,"Zemitāna laukums",,56.97918,24.18598,https://saraksti.lv/#stop/0207,,
0085,,"Čiekurkalna stacija",,56.97878,24.16345,https://saraksti.lv/#stop/0085,,
0086,,"Čiekurkalna stacija",,56.97849,24.16325,https://saraksti.lv/#stop/0086,,
0109,,"Stacionārs ""Biķernieki""",,56.96643,24.19896,https://saraksti.lv/#stop/0109,,
0446,,"Stārķu iela",,56.96550,24.16678,https://saraksti.lv/#stop/0446,,
0380,,"Raunas iela",,56.96867,24.17765,https://saraksti.lv/#stop/0380,,
0193,,"Tālivalža iela",,56.96965,24.17812,https://saraksti.lv/#stop/0193,,
2100,,"Aizkraukles iela",,56.97632,24.18812,https://saraksti.lv/#stop/2100,,
2092,,"Zemitāna laukums",,56.97782,24.18625,https://saraksti.lv/#stop/2092,,
3114,,"45.vidusskola",,56.97935,24.17670,https://saraksti.lv/#stop/3114,,
3138,,"45.vidusskola",,56.97900,24.17552,https://saraksti.lv/#stop/3138,,
3111,,"Alfa",,56.98433,24.20267,https://saraksti.lv/#stop/3111,,
3141,,"Alfa",,56.98426,24.20218,https://saraksti.lv/#stop/3141,,
3113,,"Džutas iela",,56.98097,24.18245,https://saraksti.lv/#stop/3113,,
3139,,"Džutas iela",,56.98121,24.18345,https://saraksti.lv/#stop/3139,,
3116,,"Gustava Zemgala gatve",,56.97365,24.16609,https://saraksti.lv/#stop/3116,,
3136,,"Gustava Zemgala gatve",,56.97398,24.16667,https://saraksti.lv/#stop/3136,,
3112,,"Krustabaznīcas iela",,56.98336,24.19456,https://saraksti.lv/#stop/3112,,
3140,,"Krustabaznīcas iela",,56.98327,24.19414,https://saraksti.lv/#stop/3140,,
3115,,"Lēdmanes iela",,56.97734,24.17206,https://saraksti.lv/#stop/3115,,
3137,,"Lēdmanes iela",,56.97724,24.17186,https://saraksti.lv/#stop/3137,,
0434,,"Šmerļa mežs",,56.98044,24.21246,https://saraksti.lv/#stop/0434,,
0433,,"Šmerļa mežs",,56.98094,24.21201,https://saraksti.lv/#stop/0433,,
2096,,"Bajāru iela",,56.97276,24.17987,https://saraksti.lv/#stop/2096,,
2098,,"Bajāru iela",,56.97324,24.18052,https://saraksti.lv/#stop/2098,,
2097,,"Tālivalža iela",,56.97102,24.17901,https://saraksti.lv/#stop/2097,,
2095,,"Teikas vidusskola",,56.97514,24.18247,https://saraksti.lv/#stop/2095,,
0055,,"Biķernieku iela",,56.97262,24.16851,https://saraksti.lv/#stop/0055,,
0007,,"Alfa",,56.98381,24.20224,https://saraksti.lv/#stop/0007,,
5928,,"Brīvības gatve",,56.97400,24.16550,https://saraksti.lv/#stop/5928,,
5929,,"Brīvības gatve",,56.97191,24.16658,https://saraksti.lv/#stop/5929,,
1835,,"Gustava Zemgala gatve",,56.97333,24.16817,https://saraksti.lv/#stop/1835,,
1315,,"Meža iela",,56.88146,24.14022,https://saraksti.lv/#stop/1315,,
1309,,"Meža iela",,56.88148,24.13964,https://saraksti.lv/#stop/1309,,
1316,,"Titurga",,56.88352,24.14740,https://saraksti.lv/#stop/1316,,
1308,,"Titurga",,56.88349,24.14686,https://saraksti.lv/#stop/1308,,
3192,,"Vienības gatve/Bērnu slimnīca",,56.92118,24.08945,https://saraksti.lv/#stop/3192,,
1264,,"Koku iela",,56.92236,24.09552,https://saraksti.lv/#stop/1264,,
1269,,"Koku iela",,56.92208,24.09572,https://saraksti.lv/#stop/1269,,
3204,,"Viesītes iela",,56.92028,24.09732,https://saraksti.lv/#stop/3204,,
2055,,"Jelgavas iela",,56.93174,24.09953,https://saraksti.lv/#stop/2055,,
3195,,"Torņakalna stacija",,56.93049,24.08704,https://saraksti.lv/#stop/3195,,
3200,,"Torņakalna stacija",,56.93017,24.08835,https://saraksti.lv/#stop/3200,,
1266,,"Bieķensalas iela",,56.93101,24.09869,https://saraksti.lv/#stop/1266,,
1267,,"Bieķensalas iela",,56.93021,24.09775,https://saraksti.lv/#stop/1267,,
2050,,"Jelgavas iela",,56.92367,24.09030,https://saraksti.lv/#stop/2050,,
1265,,"Satiksmes iela",,56.92693,24.09296,https://saraksti.lv/#stop/1265,,
1268,,"Satiksmes iela",,56.92675,24.09276,https://saraksti.lv/#stop/1268,,
2051,,"Vienības gatve",,56.92356,24.09001,https://saraksti.lv/#stop/2051,,
1263,,"Mūkusalas rotācijas aplis",,56.92330,24.10427,https://saraksti.lv/#stop/1263,,
1361,,"Telts iela",,56.91902,24.09121,https://saraksti.lv/#stop/1361,,
1255,,"Bieķensalas iela",,56.92829,24.10720,https://saraksti.lv/#stop/1255,,
9104,,"Bieķensalas iela",,56.92641,24.10656,https://saraksti.lv/#stop/9104,,
1260,,"Kīleveina grāvis",,56.93715,24.10228,https://saraksti.lv/#stop/1260,,
1256,,"Laivu iela",,56.93132,24.10707,https://saraksti.lv/#stop/1256,,
1261,,"Laivu iela",,56.93141,24.10684,https://saraksti.lv/#stop/1261,,
2052,,"Mūkusala",,56.93581,24.10409,https://saraksti.lv/#stop/2052,,
2053,,"Mūkusala",,56.93455,24.10479,https://saraksti.lv/#stop/2053,,
5022,,"Arkādijas parks",,56.93155,24.08230,https://saraksti.lv/#stop/5022,,
3196,,"Arkādijas parks",,56.93295,24.08390,https://saraksti.lv/#stop/3196,,
1365,,"Torņakalna iela",,56.92849,24.08079,https://saraksti.lv/#stop/1365,,
3193,,"Jelgavas iela",,56.92388,24.08988,https://saraksti.lv/#stop/3193,,
3202,,"Jelgavas iela/Bērnu slimnīca",,56.92366,24.08979,https://saraksti.lv/#stop/3202,,
5331,,"Robežu iela/Bērnu slimnīca",,56.91925,24.08836,https://saraksti.lv/#stop/5331,,
1357,,"Robežu iela/Bērnu slimnīca",,56.92055,24.08885,https://saraksti.lv/#stop/1357,,
1362,,"Satiksmes iela",,56.92713,24.09038,https://saraksti.lv/#stop/1362,,
1363,,"Satiksmes iela",,56.92709,24.09051,https://saraksti.lv/#stop/1363,,
3194,,"Satiksmes iela",,56.92736,24.09073,https://saraksti.lv/#stop/3194,,
3201,,"Satiksmes iela",,56.92760,24.09078,https://saraksti.lv/#stop/3201,,
3203,,"Telts iela",,56.92008,24.08890,https://saraksti.lv/#stop/3203,,
9115,,"2.trolejbusu parks",,56.93217,24.09908,https://saraksti.lv/#stop/9115,,
9113,,"LU Akadēmiskais centrs",,56.93658,24.09799,https://saraksti.lv/#stop/9113,,
9114,,"LU Akadēmiskais centrs",,56.93709,24.09801,https://saraksti.lv/#stop/9114,,
0123,,"Āliņģu iela",,57.03527,24.11839,https://saraksti.lv/#stop/0123,,
0125,,"Āliņģu iela",,57.03524,24.11819,https://saraksti.lv/#stop/0125,,
0118,,"Jaunciema gatve 233",,57.04323,24.11498,https://saraksti.lv/#stop/0118,,
0119,,"Jaunciema gatve 233",,57.04326,24.11477,https://saraksti.lv/#stop/0119,,
0184,,"Kalēji",,57.05250,24.13859,https://saraksti.lv/#stop/0184,,
0183,,"Kalēji",,57.05261,24.13743,https://saraksti.lv/#stop/0183,,
0293,,"Langa",,57.05277,24.14381,https://saraksti.lv/#stop/0293,,
0294,,"Langa",,57.05293,24.14477,https://saraksti.lv/#stop/0294,,
0247,,"Līgeri",,57.05139,24.12800,https://saraksti.lv/#stop/0247,,
0246,,"Līgeri",,57.05100,24.12716,https://saraksti.lv/#stop/0246,,
0072,,"Niedru iela",,57.04568,24.11969,https://saraksti.lv/#stop/0072,,
0073,,"Niedru iela",,57.04537,24.11905,https://saraksti.lv/#stop/0073,,
0319,,"Ozoli",,57.04830,24.12372,https://saraksti.lv/#stop/0319,,
0320,,"Ozoli",,57.04877,24.12395,https://saraksti.lv/#stop/0320,,
0328,,"Pagrieziens uz Carnikavu",,57.05291,24.15608,https://saraksti.lv/#stop/0328,,
0329,,"Pagrieziens uz Carnikavu",,57.05299,24.15394,https://saraksti.lv/#stop/0329,,
0517,,"Ziemeļblāzma",,57.03941,24.11285,https://saraksti.lv/#stop/0517,,
0516,,"Ziemeļblāzma",,57.03890,24.11311,https://saraksti.lv/#stop/0516,,
5143,,"Stopiņu pagasta pārvalde",,56.94281,24.28446,https://saraksti.lv/#stop/5143,,
5142,,"Stopiņu pagasta pārvalde",,56.94311,24.28369,https://saraksti.lv/#stop/5142,,
5406,,"Ulbroka",,56.94052,24.29210,https://saraksti.lv/#stop/5406,,
5102,,"Dreiliņu veikals",,56.94342,24.25082,https://saraksti.lv/#stop/5102,,
5103,,"Dreiliņu veikals",,56.94351,24.25041,https://saraksti.lv/#stop/5103,,
5199,,"Liepziedi",,56.94329,24.25756,https://saraksti.lv/#stop/5199,,
5200,,"Liepziedi",,56.94338,24.25646,https://saraksti.lv/#stop/5200,,
5320,,"Radiostacijas iela",,56.94288,24.27131,https://saraksti.lv/#stop/5320,,
5321,,"Radiostacijas iela",,56.94309,24.26747,https://saraksti.lv/#stop/5321,,
5406a,,"Ulbroka",,56.94021,24.29237,https://saraksti.lv/#stop/5406a,,
0237,,"Lapsukalni",,56.98714,24.33781,https://saraksti.lv/#stop/0237,,
0236,,"Lapsukalni",,56.98786,24.33776,https://saraksti.lv/#stop/0236,,
0495,,"Upesciems",,56.98185,24.33610,https://saraksti.lv/#stop/0495,,
0494,,"Upesciems",,56.98240,24.33804,https://saraksti.lv/#stop/0494,,
0518,,"Ziemeļnieki",,56.99558,24.33508,https://saraksti.lv/#stop/0518,,
0519,,"Ziemeļnieki",,56.99583,24.33522,https://saraksti.lv/#stop/0519,,
0438,,"Rīgas apvedceļš",,56.98595,24.32154,https://saraksti.lv/#stop/0438,,
0437,,"Rīgas apvedceļš",,56.98583,24.32231,https://saraksti.lv/#stop/0437,,
1523,,"Upeskalni",,56.96526,24.33035,https://saraksti.lv/#stop/1523,,
1524,,"Upeskalni",,56.96512,24.32961,https://saraksti.lv/#stop/1524,,
1319,,"Rāmava",,56.89436,24.15491,https://saraksti.lv/#stop/1319,,
1322,,"Rāmava",,56.89429,24.15271,https://saraksti.lv/#stop/1322,,
5294,,"Jāņa Čakstes gatve",,56.90852,24.14607,https://saraksti.lv/#stop/5294,,
1292,,"Sarma",,56.89581,24.14746,https://saraksti.lv/#stop/1292,,
1293,,"Sarma",,56.89716,24.14737,https://saraksti.lv/#stop/1293,,
1286,,"Štrausi",,56.90696,24.14627,https://saraksti.lv/#stop/1286,,
1287,,"Štrausi",,56.90580,24.14630,https://saraksti.lv/#stop/1287,,
5424,,"Valdlauču centrs",,56.90251,24.14668,https://saraksti.lv/#stop/5424,,
1289,,"Valdlauču centrs",,56.90124,24.14673,https://saraksti.lv/#stop/1289,,
1323,,"Krustkalni",,56.89544,24.14112,https://saraksti.lv/#stop/1323,,
1332,,"Krustkalni",,56.89320,24.14353,https://saraksti.lv/#stop/1332,,
1331,,"Neilandi",,56.89670,24.13904,https://saraksti.lv/#stop/1331,,
5030,,"Āvas",,56.92921,24.31668,https://saraksti.lv/#stop/5030,,
5031,,"Āvas",,56.92978,24.31545,https://saraksti.lv/#stop/5031,,
5062,,"Līgo parks",,56.93344,24.30794,https://saraksti.lv/#stop/5062,,
5063,,"Līgo parks",,56.93386,24.30760,https://saraksti.lv/#stop/5063,,
5032,,"Ulbrokas vidusskola",,56.92910,24.32064,https://saraksti.lv/#stop/5032,,
0013,,"Airu iela",,57.04760,24.09548,https://saraksti.lv/#stop/0013,,
0014,,"Airu iela",,57.04779,24.09624,https://saraksti.lv/#stop/0014,,
0336,,"Ķīļu iela",,57.05054,24.10184,https://saraksti.lv/#stop/0336,,
0337,,"Ķīļu iela",,57.05023,24.10164,https://saraksti.lv/#stop/0337,,
0215,,"Vecdaugavas iela",,57.04450,24.09218,https://saraksti.lv/#stop/0215,,
0214,,"Vecdaugavas iela",,57.04459,24.09203,https://saraksti.lv/#stop/0214,,
0264,,"Mangaļu prospekts",,57.07113,24.09526,https://saraksti.lv/#stop/0264,,
0265,,"Mangaļu prospekts",,57.07088,24.09574,https://saraksti.lv/#stop/0265,,
0330,,"Pagrieziens uz Mangaļsalu",,57.07066,24.10501,https://saraksti.lv/#stop/0330,,
0304,,"Skanstnieki",,57.05536,24.10439,https://saraksti.lv/#stop/0304,,
0305,,"Skanstnieki",,57.05585,24.10439,https://saraksti.lv/#stop/0305,,
0331,,"Vecāķu prospekts",,57.07029,24.10484,https://saraksti.lv/#stop/0331,,
0444,,"Vecdaugavas stacija",,57.05941,24.10600,https://saraksti.lv/#stop/0444,,
0442,,"Vecdaugavas stacija",,57.05902,24.10564,https://saraksti.lv/#stop/0442,,
0523,,"Zvejas iela",,57.06368,24.10613,https://saraksti.lv/#stop/0523,,
0524,,"Zvejas iela",,57.06418,24.10585,https://saraksti.lv/#stop/0524,,
0218,,"Kreimeņu iela",,57.03605,24.09705,https://saraksti.lv/#stop/0218,,
0255,,"Kultūras pils ""Ziemeļblāzma""",,57.03509,24.10036,https://saraksti.lv/#stop/0255,,
0254,,"Martas Rinkas iela",,57.03446,24.10240,https://saraksti.lv/#stop/0254,,
0283,,"Melīdas iela",,57.03227,24.10902,https://saraksti.lv/#stop/0283,,
0282,,"Melīdas iela",,57.03157,24.10997,https://saraksti.lv/#stop/0282,,
0030,,"Atlantijas iela",,57.03779,24.08740,https://saraksti.lv/#stop/0030,,
0029,,"Atlantijas iela",,57.03652,24.08643,https://saraksti.lv/#stop/0029,,
0089,,"Vecmīlgrāvja D/P",,57.04190,24.08947,https://saraksti.lv/#stop/0089,,
0088,,"Vecmīlgrāvja D/P",,57.04198,24.08883,https://saraksti.lv/#stop/0088,,
0041,,"Baltāsbaznīcas iela",,57.03630,24.09110,https://saraksti.lv/#stop/0041,,
0124,,"Emmas iela",,57.03368,24.11843,https://saraksti.lv/#stop/0124,,
0108,,"Gāles iela",,57.03352,24.11855,https://saraksti.lv/#stop/0108,,
0349,,"Vecmīlgrāvja 5.līnija",,57.03117,24.11383,https://saraksti.lv/#stop/0349,,
0348,,"Vecmīlgrāvja 5.līnija",,57.03097,24.11365,https://saraksti.lv/#stop/0348,,
0040,,"Baltāsbaznīcas iela",,57.03562,24.09465,https://saraksti.lv/#stop/0040,,
5003,,"Grēcinieku iela",,56.94577,24.10541,https://saraksti.lv/#stop/5003,,
3009,,"Grēcinieku iela",,56.94570,24.10606,https://saraksti.lv/#stop/3009,,
3012,,"Grēcinieku iela",,56.94595,24.10565,https://saraksti.lv/#stop/3012,,
1025a,,"13.janvāra iela",,56.94543,24.11311,https://saraksti.lv/#stop/1025a,,
1025b,,"13.janvāra iela",,56.94571,24.11373,https://saraksti.lv/#stop/1025b,,
1025,,"13.janvāra iela",,56.94562,24.11349,https://saraksti.lv/#stop/1025,,
3010,,"13.janvāra iela",,56.94604,24.11387,https://saraksti.lv/#stop/3010,,
3100,,"13.janvāra iela",,56.94576,24.11321,https://saraksti.lv/#stop/3100,,
3061,,"Nacionālā opera",,56.94863,24.11399,https://saraksti.lv/#stop/3061,,
3099,,"Nacionālā opera",,56.94836,24.11414,https://saraksti.lv/#stop/3099,,
1135,,"Pagrieziens uz Voleriem",,56.98866,24.08296,https://saraksti.lv/#stop/1135,,
1144,,"Beķermuiža",,57.00613,24.07626,https://saraksti.lv/#stop/1144,,
1145,,"Beķermuiža",,57.00686,24.07580,https://saraksti.lv/#stop/1145,,
1141,,"Pagrieziens uz Voleriem",,56.98923,24.08215,https://saraksti.lv/#stop/1141,,
1142,,"Voleri",,56.99799,24.07713,https://saraksti.lv/#stop/1142,,
1143,,"Voleri",,56.99872,24.07723,https://saraksti.lv/#stop/1143,,
1146,,"Zilā iela",,57.01311,24.06934,https://saraksti.lv/#stop/1146,,
1147,,"Zilā iela",,57.01163,24.07160,https://saraksti.lv/#stop/1147,,
8072,,"Pagrieziens uz Voleriem",,56.98925,24.08288,https://saraksti.lv/#stop/8072,,
1136,,"Voleri",,57.00378,24.08711,https://saraksti.lv/#stop/1136,,
1137,,"Voleru iela 35",,56.99806,24.08685,https://saraksti.lv/#stop/1137,,
1138,,"Voleru iela 35",,56.99760,24.08668,https://saraksti.lv/#stop/1138,,
1139,,"Voleru iela 5",,56.99354,24.08605,https://saraksti.lv/#stop/1139,,
1140,,"Voleru iela 4",,56.99150,24.08495,https://saraksti.lv/#stop/1140,,
3021,,"Zasulauka stacija",,56.94216,24.05212,https://saraksti.lv/#stop/3021,,
1236,,"Botāniskais dārzs",,56.94968,24.05440,https://saraksti.lv/#stop/1236,,
3000,,"Zasulauka stacija",,56.94190,24.05316,https://saraksti.lv/#stop/3000,,
3001,,"Kalnciema iela",,56.94074,24.05733,https://saraksti.lv/#stop/3001,,
3022,,"Elvīras iela",,56.94615,24.04844,https://saraksti.lv/#stop/3022,,
3030,,"Elvīras iela",,56.94587,24.04864,https://saraksti.lv/#stop/3030,,
3024,,"Jūrmalas gatve",,56.95106,24.04605,https://saraksti.lv/#stop/3024,,
3023,,"Kandavas iela",,56.94892,24.04690,https://saraksti.lv/#stop/3023,,
3029,,"Kandavas iela",,56.94896,24.04683,https://saraksti.lv/#stop/3029,,
1117,,"Kuldīgas iela",,56.94834,24.05796,https://saraksti.lv/#stop/1117,,
1237,,"Kuldīgas iela",,56.94762,24.05979,https://saraksti.lv/#stop/1237,,
1561,,"Āgenskalna priedes",,56.94454,24.05899,https://saraksti.lv/#stop/1561,,
1562,,"Dreiliņu iela",,56.94183,24.06034,https://saraksti.lv/#stop/1562,,
8015,,"Mākoņkalns",,56.89502,24.16568,https://saraksti.lv/#stop/8015,,
8016,,"Mākoņkalns",,56.89506,24.16515,https://saraksti.lv/#stop/8016,,
0009,,"Katlakalna kapi",,56.89614,24.17333,https://saraksti.lv/#stop/0009,,
1321,,"Ziedonis",,56.89763,24.17328,https://saraksti.lv/#stop/1321,,
1320,,"Katlakalna kapi",,56.89547,24.17207,https://saraksti.lv/#stop/1320,,
1277,,"Mazā Stērstu iela",,56.91374,24.11830,https://saraksti.lv/#stop/1277,,
3188,,"Mazā Stērstu iela",,56.91370,24.11707,https://saraksti.lv/#stop/3188,,
3207,,"Mazā Stērstu iela",,56.91381,24.11626,https://saraksti.lv/#stop/3207,,
1274,,"Skaistkalnes iela",,56.91782,24.10387,https://saraksti.lv/#stop/1274,,
1275,,"Skaistkalnes iela",,56.91795,24.10361,https://saraksti.lv/#stop/1275,,
3190,,"Skaistkalnes iela",,56.91788,24.10355,https://saraksti.lv/#stop/3190,,
3205,,"Skaistkalnes iela",,56.91774,24.10387,https://saraksti.lv/#stop/3205,,
1272,,"Stērstu iela/CSDD",,56.91473,24.11341,https://saraksti.lv/#stop/1272,,
1273,,"Stērstu iela/CSDD",,56.91500,24.11242,https://saraksti.lv/#stop/1273,,
3189,,"Stērstu iela/CSDD",,56.91513,24.11186,https://saraksti.lv/#stop/3189,,
3206,,"Stērstu iela/CSDD",,56.91495,24.11233,https://saraksti.lv/#stop/3206,,
3191,,"Viesītes iela",,56.91967,24.09788,https://saraksti.lv/#stop/3191,,
1278,,"Ziepniekkalna iela",,56.91409,24.12139,https://saraksti.lv/#stop/1278,,
3187,,"Ziepniekkalna iela",,56.91514,24.12305,https://saraksti.lv/#stop/3187,,
3208,,"Ziepniekkalna iela",,56.91402,24.12143,https://saraksti.lv/#stop/3208,,
2104,,"Graudu iela",,56.91135,24.10248,https://saraksti.lv/#stop/2104,,
2106,,"Līvciema iela",,56.90866,24.09723,https://saraksti.lv/#stop/2106,,
2109,,"Līvciema iela",,56.90931,24.09878,https://saraksti.lv/#stop/2109,,
1276,,"Mūkusalas rotācijas aplis",,56.92213,24.10354,https://saraksti.lv/#stop/1276,,
1359,,"Telts iela",,56.91845,24.08924,https://saraksti.lv/#stop/1359,,
2115,,"""Dzintars""",,56.90600,24.11154,https://saraksti.lv/#stop/2115,,
2113,,"Staburaga iela",,56.90750,24.10908,https://saraksti.lv/#stop/2113,,
2116,,"Staburaga iela",,56.90806,24.10856,https://saraksti.lv/#stop/2116,,
8041,,"Īslīces iela",,56.89837,24.08609,https://saraksti.lv/#stop/8041,,
5333,,"Mežkalna iela",,56.89881,24.07946,https://saraksti.lv/#stop/5333,,
1340,,"Ozolciema iela",,56.89951,24.09832,https://saraksti.lv/#stop/1340,,
1342,,"Ozolciema iela",,56.89917,24.09666,https://saraksti.lv/#stop/1342,,
1341,,"Ziepniekkalna D/P",,56.90238,24.10252,https://saraksti.lv/#stop/1341,,
1341a,,"Ziepniekkalna D/P",,56.90161,24.10255,https://saraksti.lv/#stop/1341a,,
2105,,"Mālu iela",,56.91123,24.10405,https://saraksti.lv/#stop/2105,,
2102,,"Saulkalnes iela",,56.91491,24.09780,https://saraksti.lv/#stop/2102,,
2110,,"Saulkalnes iela",,56.91207,24.10290,https://saraksti.lv/#stop/2110,,
1336,,"Bērzupes iela/2.slimnīca",,56.91611,24.09186,https://saraksti.lv/#stop/1336,,
1337,,"Bērzupes iela/2.slimnīca",,56.91594,24.09293,https://saraksti.lv/#stop/1337,,
1335,,"K.Ulmaņa gatve",,56.91884,24.09253,https://saraksti.lv/#stop/1335,,
1360,,"Vaiņodes iela",,56.91827,24.09213,https://saraksti.lv/#stop/1360,,
2107,,"Ēbelmuižas iela",,56.90439,24.09380,https://saraksti.lv/#stop/2107,,
1345,,"Graudu iela",,56.90981,24.09553,https://saraksti.lv/#stop/1345,,
1346,,"Graudu iela",,56.90828,24.09508,https://saraksti.lv/#stop/1346,,
1338,,"Spulgas iela",,56.90201,24.09324,https://saraksti.lv/#stop/1338,,
1344,,"Spulgas iela",,56.90346,24.09375,https://saraksti.lv/#stop/1344,,
1271,,"Tadaiķu iela",,56.91570,24.09710,https://saraksti.lv/#stop/1271,,
1270,,"Valdeķu iela",,56.91453,24.09657,https://saraksti.lv/#stop/1270,,
1339,,"Ziepniekkalna vidusskola",,56.90013,24.09250,https://saraksti.lv/#stop/1339,,
1343,,"Ziepniekkalna vidusskola",,56.90021,24.09268,https://saraksti.lv/#stop/1343,,
1338a,,"Ziepniekkalns",,56.90231,24.09350,https://saraksti.lv/#stop/1338a,,
1351,,"Ābolu iela",,56.90626,24.08330,https://saraksti.lv/#stop/1351,,
1352,,"Ābolu iela",,56.90449,24.08187,https://saraksti.lv/#stop/1352,,
1353,,"Graudu iela",,56.91048,24.08617,https://saraksti.lv/#stop/1353,,
1355,,"Ģimnastikas iela",,56.91706,24.08799,https://saraksti.lv/#stop/1355,,
2048,,"Irbenes iela",,56.91395,24.08724,https://saraksti.lv/#stop/2048,,
5334,,"Vienības gatve",,56.89966,24.07872,https://saraksti.lv/#stop/5334,,
1329,,"Kalētu iela",,56.90661,24.12836,https://saraksti.lv/#stop/1329,,
1330,,"Priekules iela",,56.90427,24.13025,https://saraksti.lv/#stop/1330,,
1328,,"Šautuves iela",,56.91223,24.12403,https://saraksti.lv/#stop/1328,,
4160,,"Basu iela",,56.90840,24.09312,https://saraksti.lv/#stop/4160,,
4161,,"Basu iela",,56.90846,24.09332,https://saraksti.lv/#stop/4161,,
7013,,"Graudu iela",,56.90966,24.08708,https://saraksti.lv/#stop/7013,,
7015,,"Ķekavas iela",,56.91357,24.11014,https://saraksti.lv/#stop/7015,,
7016,,"Ķekavas iela",,56.91410,24.11165,https://saraksti.lv/#stop/7016,,
5926,,"Īslīces iela",,56.89851,24.08235,https://saraksti.lv/#stop/5926,,
1433,,"P.Lejiņa iela",,56.94699,24.01210,https://saraksti.lv/#stop/1433,,
1432,,"Priedaines iela",,56.94300,24.01762,https://saraksti.lv/#stop/1432,,
1431,,"Priedaines iela",,56.94359,24.01609,https://saraksti.lv/#stop/1431,,
1444,,"Zantes iela",,56.94418,24.01256,https://saraksti.lv/#stop/1444,,
1445,,"Zantes iela",,56.94406,24.01157,https://saraksti.lv/#stop/1445,,
5450,,"Zolitūdes iela",,56.92942,24.01646,https://saraksti.lv/#stop/5450,,
5449,,"Zolitūdes iela",,56.92897,24.01584,https://saraksti.lv/#stop/5449,,
1434,,"Anniņmuižas iela",,56.94926,24.01440,https://saraksti.lv/#stop/1434,,
1436,,"Anniņmuižas iela",,56.94938,24.01264,https://saraksti.lv/#stop/1436,,
1439,,"Imantas stacija",,56.94956,24.00122,https://saraksti.lv/#stop/1439,,
1440,,"Imantas stacija",,56.94966,23.99980,https://saraksti.lv/#stop/1440,,
1437,,"Rostokas iela 16",,56.94952,24.00598,https://saraksti.lv/#stop/1437,,
1438,,"Rostokas iela 16",,56.94945,24.00653,https://saraksti.lv/#stop/1438,,
1435,,"Zolitūdes D/P",,56.94830,24.02382,https://saraksti.lv/#stop/1435,,
1443,,"Gramzdas iela",,56.94344,24.00347,https://saraksti.lv/#stop/1443,,
1446,,"Gramzdas iela",,56.94414,24.00309,https://saraksti.lv/#stop/1446,,
1441,,"Imantas stacija",,56.94889,23.99929,https://saraksti.lv/#stop/1441,,
1448,,"Imantas stacija",,56.94915,23.99924,https://saraksti.lv/#stop/1448,,
1442,,"Mežmalas iela",,56.94607,24.00143,https://saraksti.lv/#stop/1442,,
1447,,"Mežmalas iela",,56.94751,24.00049,https://saraksti.lv/#stop/1447,,
1435a,,"Zolitūdes D/P",,56.94823,24.02459,https://saraksti.lv/#stop/1435a,,